     3.03           OBSERVATION DATA    M                   RINEX VERSION / TYPE
GnssLogger          Xiaomi 10           20221117 131344 UTC PGM / RUN BY / DATE
Google GnssLogger                                           MARKER NAME
G    8 C1C L1C D1C S1C C5Q L5Q D5Q S5Q                      SYS / # / OBS TYPES
R    4 C1C L1C D1C S1C                                      SYS / # / OBS TYPES
C    4 C2C L2C D2C S2C                                      SYS / # / OBS TYPES
E    8 C1C L1C D1C S1C C5Q L5Q D5Q S5Q                      SYS / # / OBS TYPES
  2022    11    17    13    13   44.0000000     GPS         TIME OF FIRST OBS
 5 R09 -2 R105  5 R14 -7 R15  0 R17  4                       GLONASS SLOT / FRQ #
                                                            END OF HEADER
> 2022 11 17 13 13 44.9996593  0 12                      
G09  24849119.61213     48154.95713     -2813.08513        20.74113                    151789.90713     -2102.30813        23.41613
G10  25387527.98026    -17406.45126      1075.00226        39.34926                    -50561.68226       802.79826        38.36826
G16  23672537.94326    114364.67626     -2699.51626        37.81226                                                                
G21  20676249.93014    -69723.13114      1507.66214        24.26314                                                                
G27  22219038.58026    170974.83226     -2935.54426        38.27926                                                                
R14                     67240.70013     -3646.11713        18.72613
R09  24222173.83825   -120692.57725      3802.63225        31.99625
R15                     31921.64314     -1447.16514        24.71714
R17  20231443.96325    116077.23425     -2864.30725        33.02825
R105                     46558.32412     -1634.69612        14.76012
E02                     44441.15924     -1681.35924        25.43124                    249076.35923     -1271.87023        22.73423
E30                     -2164.08713       329.38113        20.15813                                                                
> 2022 11 17 13 13 45.9996593  0 12                      
G09  24849646.94713     50967.62613     -2814.52413        20.75013                    153891.67524     -2101.76824        24.35224
G10  25387320.82426    -18481.46526      1075.01426        40.12626                    -51364.46826       802.78626        38.01926
G16  23673050.28826    117063.88726     -2699.21126        37.32026                                                                
G21  20675965.42714    -71230.94814      1507.94714        24.11014                                                                
G27  22219597.39326    173910.02326     -2935.19126        38.61226                                                                
R14                     70885.95812     -3648.96012        16.09912
R09  24221448.34025   -124495.65125      3803.07425        32.14125
R15                     33366.52514     -1445.31114        25.00414
R17  20232025.56025    118941.53225     -2864.29825        33.55325
R105                     48189.59012     -1628.79412        15.05612
E02                     46122.29424     -1681.13524        25.68524                    250348.15813     -1271.59413        23.47013
E30                     -2481.95213       333.00213        19.83513                                                                
> 2022 11 17 13 13 46.9996591  0 13                      
G09                     53779.37613     -2814.33713        19.93613                    155992.59914     -2100.96614        24.37214
G10  25387086.68626    -19557.08926      1075.62426        39.09826                    -52167.63826       803.17026        37.76626
G16  23673530.25626    119762.31126     -2698.42526        38.88926                                                                
G21  20675652.74323    -72739.35423      1508.40623        23.50023                                                                
G27  22220129.22526    176844.28126     -2934.25826        41.08726                                                                
R14                     74541.76512     -3651.03512        16.00712
R09  24220704.85525   -128299.70725      3804.05625        32.47125
R15                     34811.99114     -1445.57414        24.28514
R17  20232516.92025    121805.59225     -2864.06025        33.61625
R105                     49819.10813     -1630.84013        20.71013
E02                     47802.62324     -1680.32924        25.09124                    251619.44213     -1271.65713        23.23913
E27                     -5272.98613      2047.87413        22.00313                                                                
E30                     -2817.12413       336.35113        19.46813                                                                
> 2022 11 17 13 13 47.9996591  0 13                      
G09  24850687.22724     56588.90624     -2809.53024        26.08924                    158091.59014     -2099.67814        23.90514
G10  25386881.32826    -20633.80326      1076.71426        36.60226                    -52969.04615       798.90115        32.64415
G16  23674039.30426    122460.64026     -2698.32926        39.60826                                                                
G21  20675368.24013    -74246.93013      1511.88913        20.60913                                                                
G27  22220678.44427    179776.94627     -2932.66527        42.11327                                                                
R14                     78188.28612     -3645.02212        16.74012
R09  24219993.74715   -132106.04615      3808.41315        30.00215
R15                     36255.23814     -1443.96614        24.39714
R17  20233049.35126    124670.06726     -2864.47526        37.52826
R105                     51451.36513     -1625.55613        22.78313
E02                     49485.23714     -1672.13914        28.87514                    252891.43024     -1271.98824        26.60224
E27                     -7310.54913      2049.86113        20.55513                                                                
E30                     -3153.14424       336.02024        25.03124                                                                
> 2022 11 17 13 13 48.9996591  0 13                      
G09  24851192.67713     59395.21613     -2801.72413        21.36813                    160196.22513     -2105.87513        18.70413
G10  25386649.28815    -21707.50015      1072.03215        32.77515                    -53771.37314       794.46714        29.20314
G16  23674521.96915    125160.47915     -2701.54015        35.16615                                                                
G21                    -75754.87712      1510.06012        15.41512                                                                
G27  22221204.58016    182714.35016     -2930.45516        36.49416                                                                
R14                     81827.95311     -3637.28311        11.69011
R09  24219251.76114   -135913.11614      3803.69614        25.84714
R15                     37701.03614     -1443.08714        24.83814
R17  20233547.30725    127535.73425     -2865.66625        34.45925
R105                     53076.92413     -1623.19013        18.45813
E02                     51166.59424     -1681.35724        29.40224                    254163.60223     -1272.17223        23.37923
E27                     -9356.23212      2051.74012        17.07312                                                                
E30                     -3487.16814       333.00714        28.53914                                                                
> 2022 11 17 13 13 49.9996591  0 13                      
G09                     62193.47312     -2788.93212        16.03612                    162296.53012     -2096.50212        13.37212
G10  25386439.13414    -22780.73114      1069.10914        28.28414                    -54572.80414       795.34014        24.39514
G16  23675036.11415    127859.99015     -2698.88215        30.17215                                                                
G21                    -77269.69311      1514.23711        10.28911                                                                
G27  22221761.29515    185649.67415     -2935.33315        31.42715                                                                
R14                     85461.92711     -3639.96211        11.20611
R09  24218538.85413   -139716.74513      3797.16613        21.20413
R15                     39142.32413     -1448.13613        22.33913
R17  20234089.33114    130401.38314     -2865.27114        29.42514
R105                     54696.27512     -1623.04212        13.12612
E02                     52848.35224     -1681.75824        28.58224                    255435.50113     -1245.86713        18.34813
E27                    -11426.19212      2058.37612        16.52112                                                                
E30                     -3820.73914       333.34114        26.91714                                                                
> 2022 11 17 13 13 50.9996590  0 13                      
G09                     64972.06411     -2791.19311        10.70411                    164396.95811     -2096.57811        10.22811
G10                    -23849.43913      1041.18513        23.14913                    -55373.86123       801.05723        20.74723
G16  23675514.28324    130559.97324     -2699.98324        27.16824                                                                
G21                    -78785.98511      1513.73811         9.98511                                                                
G27  22222293.72625    188585.53425     -2935.86025        29.99525                                                                
R14                     89090.84611     -3628.14511        10.34611
R09                   -143516.81512      3790.97612        16.61412
R15                     40591.76113     -1452.28013        20.81113
R17  20234595.38114    133268.41514     -2866.55314        26.53714
R105                     56319.29211     -1622.24311         9.17411
E02                     54530.27524     -1681.92324        28.21824                    256708.51112     -1269.80712        15.34912
E27                    -13510.28812      2065.83012        15.83712                                                                
E30                     -4153.98524       333.24724        26.39424                                                                
> 2022 11 17 13 13 51.9996590  0 13                      
G09                     67740.04211     -2778.97511         9.84411                    166489.45411     -2094.25311        12.47011
G10                    -24916.05013      1064.10913        18.89913                    -56175.15213       803.56013        18.14113
G16  23676024.22914    133259.63614     -2699.91414        25.15214                                                                
G21                    -80303.15511      1516.24111         9.59611                                                                
G27  22222854.33825    191521.14625     -2935.61225        29.75425                                                                
R14                     92714.46011     -3624.55911         9.48611
R09                   -147313.70812      3790.63412        16.36912
R15                     42044.87613     -1443.34413        19.41513
R17  20235129.01214    136135.68414     -2871.24214        25.47614
R105                     57955.45311     -1631.50211         8.31411
E02                     56212.15424     -1681.87924        27.53124                    257980.83312     -1274.96112        13.66012
E27                    -15578.11412      2064.35912        15.01612                   -277559.29711     20824.19011         7.00011
E30                     -4487.32724       333.34124        26.62624                                                                
> 2022 11 17 13 13 52.9996589  0 14                      
G09                     70506.86411     -2770.24811         9.01911                    168584.59511     -2096.04411         7.41811
G10                    -25979.77212      1063.87912        16.82112                    -56976.39513       805.18913        18.95313
G16  23676513.79114    135959.15814     -2701.17314        24.04914                                                                
G21                    -81821.16811      1517.37511         9.11611                                                                
G27  22223380.77424    194456.56924     -2935.42324        29.04524                                                                
R14                     96332.80611     -3628.32811         8.62611
R09                   -151102.59512      3795.50712        14.56512
R15                     43483.30213     -1437.72813        18.88613
R17  20235641.05724    139002.92824     -2867.24424        26.13024
R105                     59612.21411     -1646.87611         7.45311
E02                     57893.78224     -1681.62824        27.50224                    259252.77012     -1266.33812        15.71612
E27                    -17647.99712      2060.57612        14.15612                   -278892.64411      1688.16911         7.00011
E30                     -4820.92824       333.60224        26.82624                                                                
E36                      4529.59114     -2170.64114        24.04214                                                                
> 2022 11 17 13 13 53.9996588  0 14                      
G09                     73266.43111     -2763.17511         8.34311                    170680.32011     -2094.65311         7.00011
G10                    -27044.04812      1067.21512        16.87712                    -57777.36113       804.03213        17.58213
G16  23676998.55524    138658.34124     -2699.18324        24.00124                                                                
G21                    -83341.50311      1517.38211         8.67811                                                                
G27  22223910.80724    197391.70024     -2935.13224        28.77324                                                                
R14                     99945.86411     -3616.36511         7.76511
R09                   -154898.74512      3806.92512        15.71512
R15                     44918.84613     -1444.58313        17.50913
R17  20236151.00424    141870.41824     -2867.49024        25.69324
R105                     61282.48011     -1664.03111         7.45011
E02                     59575.25924     -1681.47724        27.52924                    260524.70412     -1264.47312        16.46812
E27                    -19721.56412      2057.87112        13.40612                   -280455.53811      1561.55811         9.13911
E30                     -5154.72524       333.79724        26.38824                                                                
E36                      6698.66613     -2168.77813        23.49613                                                                
> 2022 11 17 13 13 54.9996588  0 14                      
G09                     76018.10211     -2755.12611         8.03211                    172776.63311     -2096.00611         7.00011
G10                    -28107.12413      1070.56013        19.85713                    -58578.27613       799.06013        17.81913
G16  23677513.29924    141357.46924     -2699.12724        23.58524                                                                
G21                    -84862.59011      1511.86411         7.81811                                                                
G27  22224466.32224    200326.79724     -2935.09624        28.65324                                                                
R14                    103553.68211     -3616.11411         7.00011
R09                   -158707.29012      3815.95512        15.63712
R15                     46365.73413     -1455.74413        19.28413
R17  20236678.93924    144738.27024     -2867.85224        25.65324
R105                     62964.51011     -1677.06011         7.00011
E02                     61256.68324     -1681.42424        28.17924                    261797.13211     -1265.81111        11.41711
E27                    -21780.61412      2040.45812        12.54612                   -282024.46111      1571.28711         7.93511
E30                     -5488.46624       333.74124        26.41124                                                                
E36                      8862.76013     -2174.05213        21.86113                                                                
> 2022 11 17 13 13 55.9996587  0 14                      
G09                     78759.01611     -2741.40711         7.17211                    174874.33711     -2097.75911         8.70111
G10  25385103.25913    -29179.24313      1069.97013        20.92313                    -59378.64413       798.33813        18.34513
G16  23677996.86423    144056.83323     -2699.36423        23.16523                                                                
G21                    -86374.10611      1503.35511         7.00011                                                                
G27  22224995.75624    203261.34124     -2934.54424        27.81424                                                                
R14                    107155.70711     -3612.48211         7.83711
R09                   -162525.06512      3811.55612        12.88212
R15                     47820.45813     -1456.31413        18.72813
R17  20237173.89614    147606.05714     -2872.75114        24.39014
R105                     64675.75111     -1694.07811         7.00011
E02                     62938.34824     -1681.66524        28.69924                    263068.99712     -1259.65312        12.82512
E27                    -23799.74611      2028.78911        11.68511                   -283624.66411      1589.85711         7.00011
E30                     -5822.10924       333.64324        25.92324                                                                
E36                     11021.85613     -2179.39813        21.10413                                                                
> 2022 11 17 13 13 56.9996587  0 14                      
G09                     81481.87111     -2730.53011         7.00011                    176982.10311     -2100.37011         7.00011
G10  25384902.39813    -30253.15713      1067.92813        20.55913                    -60178.75713       798.73813        18.58713
G16  23678508.31013    146756.53413     -2699.43513        23.41613                                                                
G21                    -87882.32711      1504.36811         7.00011                                                                
G27  22225556.36714    206198.28514     -2936.72414        28.30814                                                                
R14                    110765.50111     -3608.85011         7.42911
R09                   -166340.66412      3809.68612        13.24912
R15                     49279.44413     -1453.21713        18.91413
R17  20237705.72813    150475.22613     -2870.88813        23.09813
R105                     66403.61311     -1713.50311         7.00011
E02                     64620.41824     -1682.06924        28.63624                    264341.34711     -1252.13311        10.42511
E27                    -25817.40811      2016.26711        10.91411                   -285242.47711      1608.02111        10.00611
E30                     -6155.23224       333.12324        26.72424                                                                
E36                     13177.62113     -2180.33413        22.72613                                                                
> 2022 11 17 13 13 57.9996586  0 14                      
G09                     84196.07811     -2712.46911         7.38011                    179090.92511     -2109.26811        11.99411
G10  25384658.66613    -31324.27613      1074.80013        21.47713                    -60978.79213       800.70113        18.41413
G16  23678987.37813    149456.29413     -2702.98313        22.88213                                                                
G21                    -89388.64511      1513.27611         7.00011                                                                
G27  22226088.79914    209132.25914     -2938.17414        26.54914                                                                
R14                    114388.79211     -3616.56311         7.65211
R09                   -170153.70612      3806.54012        13.46212
R15                     50737.93113     -1451.47313        18.32313
R17  20238210.57813    153344.85613     -2868.38113        22.32713
R105                     68146.42511     -1729.60711         7.00011
E02                     66302.51224     -1682.09424        28.63224                    265613.84311     -1256.46911        10.79811
E27                    -27827.29511      2003.74411        10.05411                   -286885.97911      1628.13511         7.00011
E30                     -6488.30224       333.07024        26.92024                                                                
E36                     15332.09513     -2182.38313        20.82013                                                                
> 2022 11 17 13 13 58.9996586  0 14                      
G09                     86900.18211     -2697.36511         7.27011                    181196.11611     -2104.51611        10.88911
G10  25384466.50013    -32394.51813      1071.52913        21.62813                    -61778.42713       800.05513        18.24213
G16  23679506.91813    152155.88513     -2697.77813        22.71313                                                                
G21                    -90906.31611      1534.67511         7.00011                                                                
G27  22226644.01524    212067.70424     -2935.44624        25.54724                                                                
R14                    118026.63911     -3640.41211         7.48511
R09                   -173957.78212      3803.00512        12.66712
R15                     52184.94713     -1452.23613        20.02813
R17  20238741.21113    156214.75613     -2869.82413        22.64613
R105                     69891.77111     -1738.23411         7.00011
E02                     67984.62224     -1682.11024        28.23524                    266886.53611     -1265.95611        10.07011
E27                    -29824.72311      1991.22111        10.28811                   -288546.29511      1654.29111         8.74911
E30                     -6821.41724       333.11524        26.70024                                                                
E36                     17488.61413     -2145.87213        20.00613                                                                
> 2022 11 17 13 13 59.9996585  0 14                      
G09                     89588.16911     -2672.13011         7.42411                    183298.02811     -2092.86511        10.69211
G10  25384217.67213    -33464.74113      1068.61913        21.40413                    -62577.84713       798.01113        17.93213
G16  23679985.68723    154855.61623     -2699.73223        23.06223                                                                
G21                    -92448.40411      1550.56711         7.00011                                                                
G27  22227184.24114    215003.31814     -2935.31014        24.63914                                                                
R14                    121670.38111     -3638.09511         7.47211
R09                   -177758.44011      3802.00111        12.41611
R15                     53634.42713     -1451.30313        19.42813
R17  20239280.83713    159085.10113     -2872.94813        23.00413
R105                     71648.51011     -1745.92511         7.00011
E02                     69666.84324     -1682.22124        27.83124                    268159.29711     -1259.98311         8.15811
E27                    -31809.56611      1978.69811         9.63811                   -290227.69111      1672.99711         7.00011
E30                     -7154.45324       333.03624        26.75624                                                                
E36                     19643.18813     -2147.57613        19.16413                                                                
> 2022 11 17 13 14 00.9996585  0 12                      
G09                     92249.28311     -2652.47411         7.78011                    185397.99011     -2094.99711         7.68511
G10  25384012.01413    -34534.62213      1067.85313        21.11213                    -63376.71612       797.08912        16.35412
G16  23680507.32613    157555.89413     -2702.96713        22.58413                                                                
G21                    -94002.79211      1570.71811         7.00011                                                                
G27  22227731.96124    217939.43024     -2936.11124        24.70724                                                                
R09                   -181555.50612      3800.47212        12.63112
R15                     55081.35113     -1453.01213        19.17313
R17  20239795.58114    161956.25814     -2874.13514        24.15314
E02                     71349.47124     -1682.62724        27.58124                    269434.42311     -1269.09111         8.28811
E27                    -33781.94811      1966.17511         8.77811                   -291954.06711      1702.37611         9.29711
E30                     -7486.92524       332.47224        26.44924                                                                
E36                     21792.94113     -2152.20613        18.55713                                                                
> 2022 11 17 13 14 01.9996584  0 12                      
G08                     15497.00214     -1289.33114        28.75714                                                                
G10  25383785.37113    -35603.56313      1070.35413        21.77113                    -64174.99012       796.57112        16.59512
G16  23680988.49313    160256.61913     -2703.66913        22.27013                                                                
G21                    -95581.84711      1590.94311         7.00011                                                                
G27  22228249.10314    220876.02414     -2936.10614        24.41314                                                                
R09                   -185349.69912      3801.49112        13.04312
R15                     56535.20413     -1458.41013        18.34313
R17  20240330.41114    164831.93314     -2876.26614        23.52414
E02                     73032.72124     -1683.25024        27.94524                    270708.53811     -1274.92511         9.74311
E27                    -35741.70711      1949.93211         8.82911                   -293721.51411      1735.30811         7.00011
E30                     -7818.78124       331.85624        26.14824                                                                
E36                     23938.78013     -2157.78113        17.71613                                                                
> 2022 11 17 13 14 02.9996584  0 10                      
G08                     16783.76814     -1290.86014        29.21914                                                                
G10  25383585.70913    -36672.00213      1071.29913        22.22113                    -64972.77013       799.50013        17.57613
G16  23681497.84013    162957.53813     -2696.19113        22.39613                                                                
G27  22228814.81214    223812.99514     -2937.59614        24.82314                                                                
R09                   -189139.52312      3798.79412        13.32012
R15                     57999.16913     -1461.68113        17.64413
R17  20240836.16113    167710.58613     -2875.00413        23.14913
E02                     74716.47524     -1683.75424        28.25724                    271981.90011     -1279.26011        11.38511
E30                     -8150.18424       331.40324        25.85624                                                                
E36                     26086.18312     -2169.60512        17.33812                                                                
> 2022 11 17 13 14 03.9996583  0 10                      
G08                     18075.97325     -1292.20425        29.54125                                                                
G10  25383363.56313    -37739.48313      1070.70713        22.58813                    -65769.99212       797.87912        15.86712
G16  23681984.40313    165659.24613     -2701.49513        22.64313                                                                
G27  22229344.54524    226750.44924     -2937.45424        25.02024                                                                
R09                   -192938.51912      3808.54612        13.07412
R15                     59461.79512     -1456.24412        16.65212
R17  20241355.70113    170582.66113     -2874.22813        23.07913
E02                     76400.72524     -1684.25024        27.95824                    273256.61511     -1284.70911        11.09611
E30                     -8481.21624       331.03224        26.58724                                                                
E36                     28259.91413     -2180.83413        19.64513                                                                
> 2022 11 17 13 14 04.9996583  0 10                      
G08                     19367.60625     -1291.63325        29.78925                                                                
G10  25383145.61413    -38807.38713      1066.53213        22.17713                    -66567.37712       794.05112        14.89912
G16  23682501.84513    168360.15413     -2702.86613        22.97313                                                                
G27  22229904.25814    229687.18814     -2937.40514        24.28114                                                                
R09                   -196748.96611      3814.10111        12.49211
R15                     60918.45213     -1458.74813        17.52313
R17  20241901.02414    173456.13814     -2870.49314        23.50214
E02                     78084.20024     -1683.47424        28.19024                    274527.57611     -1282.11811         8.77511
E30                     -8812.74324       331.52724        26.97224                                                                
E36                     30448.42923     -2188.51523        19.25323                                                                
> 2022 11 17 13 14 05.9996582  0 10                      
G08                     20659.68324     -1292.07724        29.42524                                                                
G10  25382921.06913    -39874.85613      1064.26713        22.02913                    -67364.61512       801.02312        16.67012
G16  23682972.81923    171061.17323     -2701.01923        23.13023                                                                
G27  22230434.59014    232624.12814     -2937.18914        24.09014                                                                
R09                   -200566.30811      3809.05611        11.76311
R15                     62374.83113     -1454.40613        18.81513
R17  20242399.87813    176330.43713     -2874.58613        23.02813
E02                     79767.91524     -1683.71524        28.12024                    275795.79011     -1284.46411        11.66911
E30                     -9144.12224       331.37924        26.70224                   -124894.86911      4835.76211         7.00011
E36                     32653.83813     -2195.04213        18.08413                                                                
> 2022 11 17 13 14 06.9996582  0 10                      
G08                     21951.56825     -1291.88525        29.63025                                                                
G10  25382719.60913    -40942.13313      1068.23513        22.32613                    -68161.43413       798.35613        18.40813
G16  23683497.75613    173762.48513     -2701.41113        23.31813                                                                
G27  22230993.10414    235561.17614     -2940.34114        24.10014                                                                
R09                   -204376.15011      3801.53811        11.97911
R15                     63831.73713     -1459.72213        18.12613
R17  20242948.49813    179205.05813     -2875.85813        23.23613
E02                     81451.99224     -1684.07724        28.10924                    277065.03811     -1276.14311        11.14211
E30                     -9475.16024       331.03824        26.59424                   -125066.72811       120.44311         7.00011
E36                     34857.45622     -2203.61822        15.95422                                                                
> 2022 11 17 13 14 07.9996581  0 10                      
G08                     23244.20325     -1292.63525        29.69525                                                                
G10  25382477.37713    -42008.62913      1068.58013        21.82913                    -68958.09013       797.90313        18.37013
G16  23683980.12224    176463.68024     -2701.19524        23.83824                                                                
G27  22231522.53714    238498.25114     -2937.06814        24.15014                                                                
R09                   -208176.46711      3794.38911        12.45811
R15                     65288.95713     -1461.35413        18.62613
R17  20243441.65713    182080.09313     -2874.79813        23.25613
E02                     83136.00424     -1684.01224        27.85224                    278338.49111     -1275.01311        12.01411
E30                     -9806.24524       331.08524        26.19524                   -125395.19911       296.54811         7.00011
E36                     37051.61312     -2190.60412        16.63512                                                                
> 2022 11 17 13 14 08.9996581  0 10                      
G08                     24537.14025     -1292.93725        29.69125                                                                
G10  25382275.61614    -43075.70914      1067.68314        23.75114                    -69754.29313       796.11113        18.66813
G16  23684492.76713    179165.11213     -2701.34013        23.49613                                                                
G27  22232082.84914    241435.35314     -2937.46514        24.40814                                                                
R09                   -211971.79711      3803.50211        11.81911
R15                     66746.89812     -1461.58012        16.66612
R17  20243966.89313    184955.53013     -2877.47513        22.44813
E02                     84820.17324     -1684.16924        28.07024                    279612.48612     -1265.19312        13.50012
E30                    -10137.12024       330.87524        26.02624                   -125594.69411       333.95811         7.54311
E36                     39245.80212     -2187.06912        15.93112                                                                
> 2022 11 17 13 14 09.9996580  0 10                      
G08                     25830.19425     -1293.05425        29.71425                                                                
G10  25382039.97913    -44146.12713      1065.10213        21.49713                    -70550.54113       796.70713        19.16713
G16  23684985.02613    181866.48213     -2703.61813        22.95813                                                                
G27  22232608.38514    244372.48514     -2937.42014        24.34314                                                                
R09                   -215775.85711      3795.47111        12.03111
R15                     68207.77013     -1459.16813        17.67213
R17  20244491.83013    187832.01613     -2877.33613        23.01113
E02                     86504.34224     -1684.16924        28.27724                    280886.51412     -1264.94812        16.03912
E30                    -10468.03324       330.91224        25.84624                   -125846.05111       371.34911        11.11511
E36                     41439.51112     -2182.85212        16.34612                                                                
> 2022 11 17 13 14 10.9996580  0 10                      
G08                     27123.68825     -1293.49325        29.83025                                                                
G10  25381838.51913    -45219.59013      1065.50813        20.47813                    -71346.26913       798.52613        19.26013
G16  23685501.56813    184567.97213     -2702.19713        23.40813                                                                
G27  22233171.39613    247309.66413     -2938.15413        22.33613                                                                
R09                   -219570.66311      3800.39311        11.37311
R15                     69670.89213     -1456.64313        19.26713
R17  20245038.95113    190708.54513     -2878.25413        22.80213
E02                     88188.76324     -1684.42024        28.54824                    282160.77112     -1269.96912        14.74512
E30                    -10798.69824       330.66524        26.55824                   -126111.72912       249.13912        13.80912
E36                     43632.73123     -2193.22023        18.56923                                                                
> 2022 11 17 13 14 11.9996579  0 10                      
G08                     28417.64525     -1293.95725        29.75825                                                                
G10  25381595.68713    -46284.62213      1065.41813        20.34813                    -72141.66113       794.50613        19.07413
G16  23685980.93713    187269.63513     -2701.44513        23.00413                                                                
G27  22233693.93413    250250.30213     -2931.66213        20.41113                                                                
R09                   -223361.60311      3791.66911        11.18111
R15                     71132.07913     -1458.93713        19.10713
R17  20245527.01313    193585.54813     -2877.07213        22.73013
E02                     89873.49524     -1684.73324        28.67924                    283435.24412     -1273.51212        14.48212
E30                    -11129.10424       330.40624        26.85624                   -126362.96712       251.20412        14.70812
E36                     45825.22412     -2174.87212        17.10012                                                                
> 2022 11 17 13 14 12.9996579  0 10                      
G08                     29711.69325     -1294.04825        29.59825                                                                
G10  25381389.13013    -47350.53113      1065.66313        20.42313                    -72936.87713       793.24913        18.78413
G16  23686490.88413    189971.33713     -2703.56813        22.68213                                                                
G27  22234255.14513    253180.75313     -2934.29413        20.32813                                                                
R09                   -227151.95211      3793.34911        11.35411
R15                     72588.83113     -1466.59413        19.27013
R17  20246056.44713    196462.95213     -2878.28813        22.72913
E02                     91558.13124     -1684.63624        28.24024                    284709.87511     -1270.79411        11.93011
E30                    -11459.42324       330.31924        26.39524                   -126607.92512       244.29412        14.48112
E36                     48017.05612     -2171.31712        15.24112                                                                
> 2022 11 17 13 14 13.9996578  0 10                      
G08  20481777.86025     31005.60825     -1293.91525        29.74225                                                                
G10  25381155.29213    -48421.24113      1065.68513        20.60813                    -73732.25613       792.94913        20.31313
G16  23686983.44313    192672.42413     -2698.91013        22.76713                                                                
G27  22234783.68013    256117.85213     -2936.83613        21.04713                                                                
R09                   -230953.59311      3794.65411        11.98611
R15                     74057.29013     -1461.47013        18.97313
R17  20246588.57824    199340.32324     -2877.37124        23.73824
E02                     93242.38824     -1684.25724        28.13224                    285983.72112     -1264.68612        14.09412
E30                    -11790.25724       330.83424        27.13924                   -126852.28312       249.64112        15.27712
E36                     50208.23312     -2170.12012        16.54112                                                                
> 2022 11 17 13 14 14.9996578  0 10                      
G08  20482025.48925     32299.44725     -1293.83825        29.83425                                                                
G10  25380961.92613    -49489.43813      1064.59913        20.54313                    -74527.46613       798.58913        19.84313
G16  23687486.19513    195373.47513     -2697.75713        22.57513                                                                
G27  22235318.50913    259054.59113     -2937.19313        20.33913                                                                
R09                   -234758.54411      3798.44211        11.72311
R15                     75523.48613     -1458.79913        19.34313
R17  20247119.21113    202218.93913     -2879.64613        23.09613
E02                     94926.47524     -1684.08724        28.06224                    287256.99412     -1257.47412        13.59012
E30                    -12121.08724       330.83124        27.07124                   -127107.68812       247.82612        15.34912
E36                     52398.95212     -2169.95312        15.95812                                                                
> 2022 11 17 13 14 15.9996577  0 10                      
G08  20482240.14025     33593.79825     -1294.35225        29.97025                                                                
G10                    -50550.49213      1059.50313        19.38113                    -75322.31113       797.86013        19.65913
G16  23687974.25713    198074.86313     -2703.39913        22.34013                                                                
G27                    261991.67713     -2934.47213        19.83413                                                                
R09                   -238568.20411      3809.84011        11.24511
R15                     76983.31013     -1461.55513        19.95713
R17  20247603.67613    205103.80713     -2879.14513        23.05413
E02                     96610.87724     -1684.40224        27.88424                    288528.54211     -1265.64511        11.95211
E30                    -12451.78324       330.69524        27.41924                   -127355.22712       247.61412        15.72012
E36                     54589.71412     -2170.84912        16.00212                                                                
> 2022 11 17 13 14 16.9996577  0 11                      
G08  20482485.67025     34888.25425     -1294.45525        29.93625                                                                
G10                    -51605.65012      1061.86012        16.79512                    -76116.97213       794.08313        18.58213
G16  23688482.10513    200776.26913     -2703.99813        22.22813                                                                
G27  22236422.34513    264928.62713     -2931.45813        20.82013                                                                
G30                    -75278.37213      2650.30613        18.98513                                                                
R09                   -242381.13311      3823.78311        11.16811
R15                     78439.41013     -1462.97813        19.49213
R17  20248167.58513    207983.60313     -2876.49113        22.95613
E02                     98295.27524     -1684.39824        28.19424                    289800.43212     -1274.88612        13.37412
E30                    -12782.30824       330.52524        27.16024                   -127600.61412       249.68912        15.91112
E36                     56780.08612     -2172.57612        15.52712                                                                
> 2022 11 17 13 14 17.9996576  0 11                      
G08  20482704.21925     36182.28525     -1294.03125        29.88525                                                                
G10                    -52668.02812      1059.56812        17.05412                    -76911.75513       788.95613        19.31513
G16  23688971.96623    203476.72823     -2700.45923        23.38523                                                                
G27  22236953.57713    267864.83813     -2937.07613        22.48513                                                                
G30                    -77932.43013      2646.05213        18.31013                                                                
R09                   -246209.23111      3829.19511        11.27811
R15                     79897.96713     -1467.80213        18.77513
R17  20248651.15114    210861.94814     -2879.21414        24.09314
E02                     99979.08224     -1683.80724        28.37624                    291068.98812     -1284.74512        13.50812
E30                    -13113.45824       331.15024        26.68524                   -127859.18612       253.30912        15.90012
E36                     58970.18513     -2176.90713        17.50513                                                                
> 2022 11 17 13 14 18.9996575  0 11                      
G08  20482920.96925     37477.12025     -1294.83525        29.78825                                                                
G10                    -53732.85712      1062.59912        16.41712                    -77706.23913       790.07513        18.75413
G16  23689453.43324    206177.92924     -2701.20124        23.72124                                                                
G27  22237490.50613    270801.88613     -2935.25713        22.56713                                                                
G30                    -80580.31113      2646.76213        19.12913                                                                
R09                   -250033.33511      3807.21111        12.03611
R15                     81367.73313     -1466.55713        17.87813
R17  20249161.39714    213741.14214     -2881.00014        23.70514
E02                    101663.49924     -1684.41724        28.32324                    292338.45412     -1280.05912        13.57812
E30                    -13444.11624       330.65824        26.94424                   -128105.56912       259.45712        13.83712
E36                     61160.32313     -2181.60013        17.50713                                                                
> 2022 11 17 13 14 19.9996575  0 11                      
G08  20483165.89925     38772.94325     -1295.82325        29.98425                                                                
G10                    -54795.35413      1065.00313        17.74413                    -78499.71313       795.00213        18.92113
G16  23689970.27513    208879.95313     -2698.78013        22.76413                                                                
G27  22238052.31713    273739.55713     -2937.55613        23.02613                                                                
G30                    -83227.22713      2644.73413        17.77313                                                                
R09                   -253834.82611      3802.65511        12.48811
R15                     82841.45712     -1471.97712        16.72812
R17  20249719.61114    216621.64014     -2879.45714        24.02814
E02                    103348.74124     -1685.24224        28.46524                    293612.27012     -1279.02512        14.70612
E30                    -13773.81324       329.69824        26.54824                   -128355.40312       262.09112        13.90312
E36                     63350.30312     -2186.25112        15.35512                                                                
> 2022 11 17 13 14 20.9996574  0 11                      
G08  20483382.05025     40068.73225     -1295.78925        30.00925                                                                
G10                    -55857.82113      1067.61713        17.93513                    -79293.16113       794.59113        20.22813
G16  23690455.93913    211581.71913     -2700.53613        22.71613                                                                
G27  22238567.96013    276677.03713     -2937.58413        23.12313                                                                
G30                    -85873.98413      2647.28813        19.11613                                                                
R09                   -257636.44611      3810.48311        12.19911
R15                     84317.88513     -1468.86213        17.92013
R17  20250219.96414    219502.36914     -2879.13514        23.88614
E02                    105033.76024     -1685.01924        28.29624                    294891.41712     -1272.88812        13.15012
E30                    -14103.70924       329.89624        26.99324                   -128618.53712       263.26912        14.20712
E36                     65540.19812     -2189.57012        16.55012                                                                
> 2022 11 17 13 14 21.9996574  0 11                      
G08  20483628.77925     41365.07925     -1296.34725        30.06125                                                                
G10                    -56919.60213      1059.51613        17.58213                    -80086.16113       796.46213        20.16413
G16  23690970.08313    214283.84013     -2700.57713        22.69513                                                                
G27  22239133.96814    279614.80814     -2937.91914        23.54814                                                                
G30                    -88520.33313      2646.31813        19.11113                                                                
R09                   -261451.33411      3818.19811        11.78811
R15                     85785.67313     -1459.94913        18.15213
R17  20250777.87814    222383.73214     -2881.20314        23.74414
E02                    106719.27024     -1685.51024        27.87924                    296175.44112     -1272.31712        13.25912
E30                    -14433.14614       328.90714        27.28614                   -128868.57111       256.55211        10.90711
E36                     67729.89012     -2190.98812        17.25612                                                                
> 2022 11 17 13 14 22.9996573  0 11                      
G08  20483846.12825     42662.11625     -1297.03725        30.19025                                                                
G10                    -57980.89513      1062.77513        18.46413                    -80878.62513       797.43413        19.86513
G16  23691446.45313    216986.45513     -2703.19013        23.13813                                                                
G27  22239666.99914    282553.09314     -2938.89714        23.95414                                                                
G30                    -91165.77813      2642.06813        19.58413                                                                
R09                   -265278.60011      3835.06511        11.71911
R15                     87251.53613     -1460.10513        18.34713
R17  20251268.63814    225266.06414     -2882.77914        24.37114
E02                    108405.21824     -1685.94824        28.18824                    297460.64512     -1280.11812        14.38612
E30                    -14762.12924       328.98424        27.23324                   -129125.92211       248.79211        11.78411
E36                     69919.31812     -2191.91912        16.67012                                                                
> 2022 11 17 13 14 23.9996573  0 11                      
G08  20484094.65625     43959.92825     -1297.81125        30.07325                                                                
G10                    -59041.11113      1062.65713        17.98413                    -81670.32413       794.71613        19.11013
G16  23691962.09623    219689.57223     -2703.11723        23.26623                                                                
G27  22240223.11413    285491.88613     -2938.73113        23.37713                                                                
G30                    -93810.39913      2642.54713        19.07713                                                                
R09                   -269118.39711      3855.79811        11.42811
R15                     88719.06713     -1468.82413        18.23613
R17  20251806.76614    228149.17014     -2883.14814        24.02014
E02                    110091.88324     -1686.66524        28.47924                    298744.84311     -1286.69311        12.31411
E30                    -15090.54124       328.41224        26.97024                   -129362.19912       248.23212        14.94812
E36                     72108.46812     -2192.86612        17.36012                                                                
> 2022 11 17 13 14 24.9996572  0 11                      
G08  20484312.60525     45257.93725     -1298.00925        29.91425                                                                
G10                    -60101.22813      1060.11513        18.61213                    -82461.86813       788.99813        18.21113
G16  23692449.25924    222392.82124     -2703.24924        23.52324                                                                
G27  22240763.34014    288430.73314     -2938.74914        23.71314                                                                
G30                    -96453.36513      2644.46613        18.87613                                                                
R09                   -272981.66011      3868.73111        11.34411
R15                     90191.71312     -1471.48512        16.28212
R17  20252322.70924    231032.75924     -2883.58924        24.70624
E02                    111778.48324     -1686.60024        28.47424                    300021.84312     -1284.14012        14.18312
E30                    -15418.72824       328.18724        26.52424                   -129608.38212       254.50512        15.03712
E36                     74297.01612     -2192.92412        16.98112                                                                
> 2022 11 17 13 14 25.9996572  0 11                      
G08  20484555.73725     46555.79425     -1297.85725        29.55525                                                                
G10                    -61161.25913      1055.80413        17.57313                    -83253.37413       786.09313        18.55013
G16  23692963.70313    225095.52313     -2702.68113        23.10913                                                                
G27  22241314.95824    291369.13524     -2938.40224        24.03224                                                                
G30                    -99093.83813      2644.93813        19.25713                                                                
R09                   -276861.49111      3889.37611        10.56011
R15                     91662.37312     -1466.57612        17.02912
R17  20252863.83414    233916.25814     -2885.04214        24.13614
E02                    113464.70124     -1686.21724        28.54324                    301286.68212     -1270.93612        13.89212
E30                    -15747.44524       328.71724        26.80124                   -129854.23212       247.36312        13.23912
E36                     76484.85512     -2192.25012        16.95312                                                                
> 2022 11 17 13 14 26.9996571  0 11                      
G08  20484774.88525     47853.84225     -1298.04825        29.58225                                                                
G10                    -62221.48112      1057.89212        16.77112                    -84044.92513       788.60413        18.78513
G16  23693449.06713    227798.31513     -2702.71713        23.33313                                                                
G27  22241842.29314    294307.57114     -2938.07714        24.46914                                                                
G30                   -101738.42313      2640.56613        18.94513                                                                
R09                   -280755.43711      3891.77711        10.58811
R15                     93129.70612     -1470.71612        16.34312
R17  20253371.68324    236800.32624     -2884.06824        25.06324
E02                    115151.00724     -1686.30724        28.74924                    302537.60411     -1263.44211        12.01011
E30                    -16076.01224       328.56724        26.71924                   -130104.96112       247.03512        13.36312
E36                     78671.42512     -2190.61612        17.43612                                                                
> 2022 11 17 13 14 27.9996571  0 11                      
G08  20485021.61525     49151.81925     -1297.97725        29.78425                                                                
G10                    -63284.99413      1056.76113        18.32013                    -84836.25713       791.22013        19.19413
G16  23693972.20413    230500.82613     -2702.37613        23.23913                                                                
G27  22242397.50924    297245.75224     -2938.18024        23.84224                                                                
G30                   -104382.70413      2642.47313        18.57413                                                                
R09                   -284664.38011      3919.78011        10.16111
R15                     94597.15512     -1474.29112        17.32112
R17  20253913.10824    239684.47924     -2884.15324        24.78424
E02                    116837.16624     -1686.15924        28.76824                    303793.91511     -1268.78711        10.90611
E30                    -16404.72424       328.71224        27.06724                   -130353.63712       246.43712        15.10512
E36                     80856.48913     -2184.66513        18.54313                                                                
> 2022 11 17 13 14 28.9996570  0 11                      
G08  20485238.06524     50450.31424     -1298.49524        29.46324                                                                
G10                    -64350.47413      1060.03513        18.47413                    -85627.31713       791.78613        19.15013
G16  23694444.37713    233203.60913     -2703.21813        23.15913                                                                
G27  22242928.44124    300184.04224     -2938.29024        24.23024                                                                
G30                   -107026.52013      2642.67413        19.38613                                                                
R09                   -288588.78311      3933.05711         9.30411
R15                     96072.27912     -1471.19912        16.91712
R17  20254421.25614    242569.18714     -2885.02714        25.24514
E02                    118523.53424     -1686.36824        28.24624                    305059.56411     -1267.02611         7.11711
E30                    -16733.29224       328.56924        26.69024                   -130602.08612       243.34112        16.23812
E36                     83042.34313     -2186.13213        18.03113                                                                
> 2022 11 17 13 14 29.9996570  0 11                      
G08  20485483.89524     51748.61124     -1298.29824        29.30824                                                                
G10                    -65421.58013      1058.52813        18.54313                    -86418.21913       783.19613        19.16613
G16  23694973.21113    235905.99013     -2700.25613        22.46913                                                                
G27  22243492.35114    303122.06914     -2937.06214        23.82114                                                                
G30                   -109670.85613      2644.52613        18.33113                                                                
R09                   -292529.50011      3934.23511         8.59011
R15                     97547.18412     -1466.48812        16.01412
R17  20254966.57824    245453.98624     -2884.80024        24.94424
E02                    120209.59924     -1686.06524        28.39824                    306324.24212     -1263.20412        12.87112
E30                    -17062.05224       328.76024        26.84924                   -130842.58612       242.49912        16.17412
E36                     85227.89413     -2184.24713        18.46713                                                                
> 2022 11 17 13 14 30.9996569  0 11                      
G08  20485700.94424     53046.91124     -1298.29924        29.28024                                                                
G10                    -66478.26713      1057.85913        18.26513                    -87209.33913       788.67313        18.92213
G16  23695444.18513    238608.20113     -2701.97013        22.61913                                                                
G27  22244015.18914    306059.99614     -2938.68214        23.65914                                                                
G30                   -112313.74213      2643.32313        18.78613                                                                
R09                   -296462.35411      3922.48811         8.60411
R15                     99011.57512     -1466.65212        15.57712
R17  20255487.31824    248338.88924     -2884.90324        24.41624
E02                    121895.54024     -1685.94024        28.65524                    307589.76512     -1266.49312        15.32312
E30                    -17390.97624       328.92524        26.91824                   -131091.70212       246.57212        15.74212
E36                     87413.34623     -2185.45223        18.75623                                                                
> 2022 11 17 13 14 31.9996569  0 11                      
G08  20485950.97124     54345.67224     -1298.76224        29.48524                                                                
G10                    -67530.50513      1060.55413        18.33813                    -87999.92713       790.74313        19.12513
G16  23695954.43213    241310.73213     -2704.51313        22.61013                                                                
G27  22244576.70014    308998.00614     -2937.86814        23.95514                                                                
G30                   -114951.49313      2642.47613        19.84513                                                                
R09                   -300372.58911      3923.55011         7.74411
R15                    100476.74512     -1472.30012        16.81512
R17  20256026.64514    251224.53214     -2886.78314        25.17114
E02                    123581.66824     -1686.12824        28.59524                    308858.40212     -1273.97812        14.97512
E30                    -17719.68724       328.71124        26.82724                   -131340.36012       250.31712        12.89012
E36                     89599.39223     -2186.04523        18.93123                                                                
> 2022 11 17 13 14 32.9996567  0 11                      
G08  20486165.92225     55644.30625     -1298.63425        29.62025                                                                
G10                    -68593.37313      1063.19213        18.43013                    -88790.55313       789.61113        18.74613
G16  23696443.99313    244012.82213     -2702.85413        22.47613                                                                
G27  22245100.13814    311935.75914     -2937.64014        23.86814                                                                
G30                   -117595.72913      2641.58413        19.84013                                                                
R09                   -304246.75711      3860.05811         7.00011
R15                    101955.05312     -1474.51612        16.99312
R17  20256513.80724    254110.20424     -2885.67224        25.30724
E02                    125267.65024     -1685.98324        28.56524                    310127.02711     -1287.17611        11.73311
E30                    -18048.58624       328.89824        27.01324                   -131592.97812       252.98012        14.23912
E36                     91785.20323     -2185.81223        18.88823                                                                
> 2022 11 17 13 14 33.9996567  0 11                      
G08  20486413.25125     56942.88025     -1298.57325        29.60225                                                                
G10                    -69663.92713      1061.34713        18.31513                    -89581.17813       788.69813        19.52513
G16  23696959.63613    246714.56913     -2699.81113        22.87713                                                                
G27  22245665.24624    314873.15024     -2937.39124        23.80624                                                                
G30                   -120239.21313      2640.01313        19.13713                                                                
R09                   -308093.38811      3831.06211         7.00011
R15                    103428.99713     -1468.29013        18.12813
R17  20257040.54324    256996.02924     -2885.82524        25.10324
E02                    126953.33624     -1685.68524        28.68124                    311401.84912     -1285.82112        13.15412
E30                    -18377.73224       329.14624        27.14124                   -131842.14012       246.66812        16.39612
E36                     93970.90323     -2185.70023        18.57723                                                                
> 2022 11 17 13 14 34.9996567  0 11                      
G08  20486632.10025     58242.06725     -1299.18725        29.81925                                                                
G10                    -70725.47913      1055.48213        19.07913                    -90371.27213       788.65113        20.23413
G16  23697451.29613    249416.83713     -2698.41913        22.39113                                                                
G27  22246200.37624    317810.88524     -2937.73524        23.75324                                                                
G30                   -122882.03813      2642.11613        20.18813                                                                
R09                   -311913.10911      3836.84411         8.37111
R15                    104897.79613     -1462.92813        18.29913
R17  20257582.56714    259882.59614     -2885.91414        24.75914
E02                    128639.40424     -1686.06924        28.54124                    312686.85512     -1277.98012        12.72212
E30                    -18706.36624       328.63424        26.96924                   -132091.04412       247.84612        14.93612
E36                     96157.10123     -2186.19823        19.74823                                                                
> 2022 11 17 13 14 35.9996567  0 11                      
G08  20486874.63224     59541.38424     -1299.31724        29.34624                                                                
G10                    -71780.32213      1055.25613        19.20913                    -91161.15013       787.74613        20.24313
G16  23697965.44013    252119.06613     -2705.98913        21.96913                                                                
G27  22246751.99423    320748.73523     -2937.85023        23.43623                                                                
G30                   -125524.70213      2640.18113        19.26513                                                                
R09                   -315688.41911      3805.22111         7.97311
R15                    106359.48013     -1469.12313        18.02813
R17  20258112.60014    262769.37114     -2888.22514        24.18014
E02                    130325.46724     -1686.06324        28.21124                    313972.72312     -1271.84312        14.81312
E30                    -19035.11524       328.74924        26.93424                   -132330.00712       236.95912        15.61312
E36                     98343.57723     -2186.47623        19.51623                                                                
> 2022 11 17 13 14 36.9996566  0 11                      
G08  20487092.88124     60841.03524     -1299.65124        29.14524                                                                
G10                    -72834.93813      1057.44513        18.71713                    -91950.71813       786.82913        19.91813
G16  23698434.91513    254821.38113     -2701.67813        22.31213                                                                
G27  22247277.23024    323686.57424     -2937.83824        23.89824                                                                
G30                   -128166.93813      2638.65713        19.20513                                                                
R09                   -319423.05011      3768.09311         7.11311
R15                    107830.09312     -1474.62112        17.26912
R17  20258588.37114    265656.79814     -2889.39514        23.74214
E02                    132011.74424     -1686.27824        28.60324                    315241.39912     -1273.51312        12.79312
E30                    -19363.62824       328.51324        26.88524                   -132578.76212       247.41912        15.69312
E36                    100530.23723     -2186.66023        19.74323                                                                
> 2022 11 17 13 14 37.9996566  0 11                      
G08  20487341.70824     62140.76824     -1299.73324        29.26924                                                                
G10                    -73892.29613      1057.96013        19.46113                    -92740.22713       788.29213        19.64513
G16  23698952.65613    257523.53813     -2698.03913        21.61413                                                                
G27  22247834.54524    326624.38724     -2937.81324        23.96724                                                                
G30                   -130809.15313      2639.97813        19.26213                                                                
R09                   -323099.71011      3713.55811         7.00011
R15                    109304.27212     -1471.35812        17.22212
R17  20259146.28514    268544.43614     -2886.89114        23.63114
E02                    133698.00324     -1686.25924        28.74224                    316503.16211     -1274.97711        11.94711
E30                    -19692.19424       328.56524        26.68124                   -132827.38512       249.83812        15.58212
E36                    102717.08023     -2186.84323        20.31423                                                                
> 2022 11 17 13 14 38.9996565  0 10                      
G08  20487559.65824     63440.58924     -1299.82124        29.26824                                                                
G10                    -74949.27913      1055.29013        19.10513                    -93529.59313       790.37913        19.54013
G16  23699448.21313    260225.54213     -2699.00913        22.20713                                                                
G27  22248370.27424    329561.95124     -2937.56424        23.94824                                                                
G30                   -133451.07913      2638.45513        19.20413                                                                
R15                    110779.14812     -1465.71312        17.13512
R17  20259655.03313    271432.44713     -2884.43513        23.14813
E02                    135384.06724     -1686.06324        28.30124                    317753.01912     -1266.63312        12.78912
E30                    -20020.77924       328.58524        27.05824                   -133068.77512       247.96212        15.40512
E36                    104903.82323     -2186.74323        19.25923                                                                
> 2022 11 17 13 14 39.9996565  0 10                      
G08  20487805.78714     64741.25914     -1300.77414        29.02014                                                                
G10                    -76005.87013      1051.42313        19.60213                    -94318.78313       792.21013        20.29213
G16  23699953.36413    262927.98013     -2706.40013        22.66013                                                                
G27  22248932.98424    332499.66624     -2937.71524        24.62424                                                                
G30                   -136092.85213      2642.45013        19.91713                                                                
R15                    112244.10112     -1471.59212        16.19512
R17  20260186.56513    274320.84313     -2888.37913        22.97813
E02                    137070.31924     -1686.25224        28.64224                    319017.00112     -1271.90612        13.58412
E30                    -20349.32324       328.54424        26.55024                   -133317.84112       248.49012        14.22312
E36                    107091.02913     -2187.29313        20.01313                                                                
> 2022 11 17 13 14 40.9996564  0 10                      
G08  20488022.83724     66042.27024     -1301.01124        28.95024                                                                
G10                    -77061.56913      1055.16413        19.22213                    -95106.98913       788.99513        19.57213
G16  23700442.02513    265630.89913     -2709.19613        22.76513                                                                
G27  22249459.72014    335438.00114     -2938.27114        24.79714                                                                
G30                   -138733.57513      2642.77413        17.84013                                                                
R15                    113714.36212     -1478.82112        16.25612
R17  20260703.10713    277210.41513     -2891.27313        23.34613
E02                    138757.31324     -1686.99424        28.74024                    320283.51412     -1265.04712        14.86112
E30                    -20677.12824       327.80524        27.09524                   -133565.65812       247.67212        15.28212
E36                    109278.99223     -2187.96323        19.38323                                                                
> 2022 11 17 13 14 41.9996564  0 10                      
G08  20488271.06524     67343.40124     -1301.13124        28.59424                                                                
G10  25375096.18613    -78117.08113      1058.28813        20.00813                    -95895.26513       790.18713        19.05613
G16  23700958.56813    268333.52113     -2701.91413        22.73913                                                                
G27  22250017.63324    338376.33724     -2938.33624        24.56924                                                                
G30                   -141374.07013      2635.29313        18.37413                                                                
R15                    115196.08012     -1483.47812        13.09212
R17  20261245.73114    280100.26514     -2890.24614        23.52014
E02                    140444.27324     -1686.96024        28.64524                    321546.93412     -1271.08512        14.37312
E30                    -21004.87414       327.66914        27.04414                   -133814.70912       250.16212        15.55612
E36                    111467.08113     -2188.26713        20.00013                                                                
> 2022 11 17 13 14 42.9996563  0 10                      
G08  20488489.91424     68644.18124     -1300.78124        28.61124                                                                
G10  25374868.64413    -79172.52913      1060.62313        20.41713                    -96683.32413       790.07113        19.90013
G16  23701443.03213    271036.22913     -2698.48313        22.17613                                                                
G27  22250544.96824    341314.53824     -2938.20124        24.74724                                                                
G30                   -144013.56413      2636.73913        19.48513                                                                
R15                    116681.39812     -1473.53712        13.01112
R17  20261761.67413    282990.41013     -2891.64313        22.96813
E02                    142131.18724     -1686.91524        28.48224                    322808.65611     -1280.22611        12.10911
E30                    -21332.64524       327.77124        27.13724                   -134062.53312       247.69112        13.44712
E36                    113655.21623     -2188.13523        19.28523                                                                
> 2022 11 17 13 14 43.9996561  0 10                      
G08  20488707.86324     69945.83424     -1301.65224        28.55524                                                                
G10  25374633.00713    -80227.39613      1060.00513        20.01613                    -97470.96713       788.70013        19.66213
G16  23701919.40313    273739.09813     -2702.69513        21.91713                                                                
G27  22251074.70224    344252.83024     -2938.29324        25.28524                                                                
G30                   -146648.76313      2640.44113        18.77713                                                                
R15                    118154.61212     -1466.15812        13.41912
R17  20262291.10813    285881.02113     -2890.64013        22.77513
E02                    143818.23424     -1687.04724        28.60624                    324071.84412     -1284.62512        13.64412
E30                    -21660.34724       327.70224        26.91924                   -134310.28312       240.97412        14.74712
E36                    115843.76822     -2188.55222        17.46722                                                                
> 2022 11 17 13 14 44.9996561  0 10                      
G08  20488953.39324     71247.57724     -1301.74324        28.81624                                                                
G10                    -81282.08213      1055.17613        19.67613                    -98258.61813       787.02213        18.52413
G16  23702438.64323    276441.85123     -2702.75323        23.31023                                                                
G27  22251635.61324    347190.93624     -2938.10524        25.46224                                                                
G30                   -149292.65813      2646.87013        18.45313                                                                
R15                    119624.63712     -1470.64412        13.77512
R17  20262805.85113    288771.87813     -2887.75113        23.01813
E02                    145505.20224     -1686.96724        28.52124                    325331.93312     -1276.63612        14.30212
E30                    -21988.02424       327.67724        27.22724                   -134544.30312       241.43712        13.20012
E36                    118032.25123     -2188.48323        17.60923                                                                
> 2022 11 17 13 14 45.9996561  0 10                      
G08  20489167.74424     72549.32024     -1301.74324        28.66924                                                                
G10                    -82336.48113      1054.19613        19.03013                    -99046.05013       781.16113        18.79113
G16  23702920.70913    279144.42513     -2702.56413        23.20213                                                                
G27  22252168.34414    350129.07014     -2938.48614        25.23714                                                                
G30                   -151943.77613      2644.49313        19.18113                                                                
R15                    121094.04312     -1472.28812        13.69112
R17  20263309.50313    291662.97313     -2891.31213        22.25713
E02                    147192.02514     -1686.79214        28.06114                    326587.34512     -1272.77412        13.04012
E30                    -22315.91724       327.89424        26.63624                   -134793.22812       250.39412        15.06212
E36                    120220.79223     -2188.54123        19.09323                                                                
> 2022 11 17 13 14 46.9996561  0 10                      
G08  20489418.67124     73851.34124     -1302.02224        28.61724                                                                
G10                    -83390.81113      1059.17813        18.22213                    -99833.27313       783.51013        19.39513
G16  23703436.05313    281847.16013     -2704.71113        22.95213                                                                
G27  22252730.45524    353067.11924     -2938.04924        24.13424                                                                
G30                   -154588.49013      2637.10213        19.23413                                                                
R15                    122563.14612     -1473.00812        13.94112
R17  20263834.73913    294554.60913     -2890.13313        22.13513
E02                    148879.09924     -1687.07424        28.14924                    327839.52012     -1271.95112        17.04812
E30                    -22643.55924       327.64224        26.93224                   -135042.99212       247.07912        16.07912
E36                    122409.62323     -2188.83023        18.78423                                                                
> 2022 11 17 13 14 47.9996560  0 10                      
G08  20489637.21924     75153.55724     -1302.21624        28.66624                                                                
G10                    -84443.91512      1058.66112        17.41912                   -100620.36913       787.42113        19.33013
G16  23703920.21813    284549.71813     -2702.82013        22.46113                                                                
G27  22253254.79224    356005.03724     -2937.91824        24.45024                                                                
G30                   -157231.38313      2633.44213        18.93813                                                                
R15                    124030.95112     -1474.77212        13.88012
R17  20264367.77013    297446.47713     -2895.27613        22.59113
E02                    150565.99124     -1686.89224        28.45824                    329110.58812     -1278.43812        14.20012
E30                    -22971.32024       327.76124        26.89724                   -135286.57012       247.51812        13.87912
E36                    124598.58123     -2188.95823        19.28423                                                                
> 2022 11 17 13 14 48.9996560  0 10                      
G08  20489887.54624     76456.03124     -1302.47424        28.80624                                                                
G10                    -85501.25413      1050.27213        19.80913                   -101407.24513       787.42913        19.63113
G16  23704431.96313    287252.50713     -2702.14313        22.76813                                                                
G27  22253810.90724    358943.13524     -2938.09724        23.61024                                                                
G30                   -159865.33213      2636.58213        18.67713                                                                
R15                    125507.64412     -1478.93512        14.74412
R17  20264918.48913    300338.97913     -2894.56513        22.08013
E02                    152253.19524     -1687.20424        28.35224                    330380.38912     -1285.41112        15.32812
E30                    -23298.83624       327.51624        26.98924                   -135535.53212       245.69112        14.08612
E36                    126787.77122     -2189.19022        17.25322                                                                
> 2022 11 17 13 14 49.9996559  0 10                      
G08  20490103.09724     77758.96624     -1302.93524        28.86524                                                                
G10                    -86542.18613      1047.46813        19.12713                   -102193.55313       783.86913        20.08513
G16  23704928.12023    289955.29723     -2702.79023        23.25223                                                                
G27  22254346.63624    361881.48324     -2938.34924        23.69224                                                                
G30                   -162501.63613      2645.90913        19.61313                                                                
R15                    126988.39912     -1482.77512        14.55812
R17  20265403.55313    303231.88213     -2890.80513        21.97413
E02                    153940.45924     -1687.26424        28.73024                    331649.36512     -1280.27012        13.73512
E30                    -23626.08724       327.25124        27.40524                   -135783.16711       244.59311        11.00011
E36                    128977.33923     -2189.56823        18.62923                                                                
> 2022 11 17 13 14 50.9996559  0 10                      
G08  20490351.62524     79062.13524     -1303.16924        28.95624                                                                
G10  25373158.62813    -87593.80413      1051.29713        20.02413                   -102979.78713       787.73313        20.75913
G16  23705432.67013    292658.34013     -2705.05613        23.13413                                                                
G27  22254894.95724    364819.93524     -2938.45224        23.91724                                                                
G30                   -165139.84713      2646.00313        18.69213                                                                
R15                    128470.46112     -1474.56812        14.85612
R17  20265942.88013    306125.46413     -2895.85013        20.53513
E02                    155627.92924     -1687.47124        28.59924                    332917.62012     -1278.11512        12.81212
E30                    -23953.20424       327.11724        27.10924                   -136028.71512       246.07012        12.90712
E36                    131167.18923     -2189.84923        17.73123                                                                
> 2022 11 17 13 14 51.9996558  0 10                      
G08  20490569.57424     80365.57524     -1303.43924        29.04424                                                                
G10                    -88646.17213      1054.21113        19.34913                   -103765.65513       790.81413        19.21813
G16  23705916.23614    295361.44314     -2703.91214        23.60514                                                                
G27  22255426.48924    367758.23624     -2938.30124        23.65224                                                                
G30                   -167777.58013      2639.47613        19.44313                                                                
R15                    129951.45512     -1473.25112        14.96512
R17  20266460.32113    309019.44813     -2893.88913        20.81213
E02                    157315.54924     -1687.62024        28.44824                    334186.72712     -1279.64512        13.45112
E30                    -24280.23124       327.02624        27.10424                   -136276.20712       254.38112        15.17212
E36                    133357.23323     -2190.04523        17.66323                                                                
> 2022 11 17 13 14 52.9996558  0 10                      
G08  20490819.60124     81669.54824     -1303.97324        28.97324                                                                
G10                    -89697.89913      1056.16913        19.81113                   -104551.05113       790.36713        20.08113
G16  23706432.47813    298064.79713     -2703.73813        23.48313                                                                
G27  22255986.20113    370697.02613     -2936.40813        22.70613                                                                
G30                   -170414.77113      2632.18113        19.36813                                                                
R15                    131422.51412     -1475.86712        15.03512
R17  20267034.42413    311914.07013     -2897.16613        21.42913
E02                    159003.47624     -1687.92724        28.29424                    335455.71611     -1288.76611        10.23311
E30                    -24606.87514       326.21414        27.00114                   -136523.29412       253.19912        15.90012
E36                    135547.88523     -2190.65123        18.78323                                                                
> 2022 11 17 13 14 53.9996557  0 10                      
G08  20491037.55024     82973.81024     -1304.26324        29.20624                                                                
G10  25372491.59013    -90749.15013      1048.45813        20.55313                   -105336.24413       789.56313        19.54213
G16  23706919.94113    300768.27113     -2705.73913        22.83313                                                                
G27  22256511.73813    373635.81513     -2938.24313        21.30013                                                                
G30                   -173051.72013      2634.62413        19.31413                                                                
R15                    132899.00412     -1487.55412        15.05912
R17  20267543.17213    314809.21613     -2896.96813        21.72013
E02                    160691.59724     -1688.12124        28.29524                    336722.21211     -1286.88811        11.76711
E30                    -24933.42024       326.54524        27.22524                   -136781.20512       254.62112        15.93312
E36                    137738.78922     -2190.90522        17.03322                                                                
> 2022 11 17 13 14 54.9996557  0 10                      
G08  20491285.77824     84278.42724     -1304.61624        29.18224                                                                
G10                    -91800.17213      1049.05013        19.93513                   -106120.92813       785.12713        18.90513
G16  23707430.78713    303471.91913     -2703.96513        22.80713                                                                
G27  22257066.95313    376574.73613     -2944.65313        21.95013                                                                
G30                   -175688.18313      2641.19813        19.58213                                                                
R15                    134385.01012     -1494.98312        14.74212
R17  20268077.70213    317704.78013     -2898.30913        21.13613
E02                    162379.86724     -1688.27024        28.07624                    337985.67412     -1282.75112        12.81312
E30                    -25259.74124       326.32124        27.27124                   -137033.52612       247.50212        14.94612
E36                    139929.91123     -2191.12223        18.06823                                                                
> 2022 11 17 13 14 55.9996556  0 10                      
G08  20491506.12624     85583.18024     -1304.75324        29.25024                                                                
G10                    -92850.37313      1046.17213        19.86013                   -106905.41213       781.27513        19.06613
G16  23707924.54513    306175.43013     -2699.36313        22.40413                                                                
G27  22257595.78713    379513.78013     -2940.10413        22.39513                                                                
G30                   -178324.43213      2639.60713        18.68613                                                                
R15                    135877.07312     -1497.94212        15.13412
R17  20268592.14613    320599.11913     -2898.39413        21.02213
E02                    164068.13924     -1688.27224        28.25424                    339244.88312     -1270.63712        15.17012
E30                    -25586.05924       326.31824        26.84524                   -137300.52712       246.87012        14.85412
E36                    142121.24423     -2191.33323        17.64523                                                                
> 2022 11 17 13 14 56.9996556  0 10                      
G08  20491754.65324     86887.96324     -1304.78324        29.32024                                                                
G10                    -93900.95413      1048.30013        19.73513                   -107690.05213       775.72213        18.78613
G16  23708430.59513    308878.86813     -2703.74513        23.22113                                                                
G27  22258159.69713    382452.44613     -2937.18813        22.17413                                                                
G30                   -180960.75713      2638.45613        19.15213                                                                
R15                    137374.64312     -1487.96812        14.84212
R17  20269148.86013    323495.06013     -2894.25413        20.35913
E02                    165756.22724     -1688.08724        28.06524                    340498.93012     -1260.29512        15.33412
E30                    -25912.47124       326.41224        27.10124                   -137521.04812       247.49812        14.05112
E36                    144312.40623     -2191.16323        19.10523                                                                
> 2022 11 17 13 14 57.9996555  0 10                      
G08  20491970.20424     88193.42324     -1305.46024        28.75424                                                                
G10  25371621.29213    -94950.93713      1047.02413        20.42213                   -108474.01213       779.18813        19.29513
G16  23708904.86713    311582.73913     -2704.15213        23.43013                                                                
G27  22258695.12613    385391.60413     -2940.98113        22.19413                                                                
G30                   -183596.05813      2636.16713        18.42313                                                                
R15                    138859.37512     -1485.32312        14.30012
R17                    326392.94113     -2888.37813        19.64813
E02                    167444.85924     -1688.63224        28.16924                    341749.19512     -1260.01212        14.45012
E30                    -26238.32024       325.84924        27.17024                   -137767.38212       243.38712        13.58312
E36                    146504.47723     -2192.07123        18.17823                                                                
> 2022 11 17 13 14 58.9996555  0 10                      
G08  20492217.23324     89499.21024     -1305.78724        28.95524                                                                
G10  25371422.53013    -96000.34713      1049.35613        20.00013                   -109257.72013       783.06313        18.77413
G16  23709424.10714    314286.69714     -2704.21714        23.60814                                                                
G27  22259244.34613    388330.83213     -2944.18713        22.09413                                                                
G30                   -186229.21613      2635.92013        18.47913                                                                
R15                    140337.24612     -1474.33812        14.74212
R17  20270154.06413    329288.47513     -2898.74013        20.52513
E02                    169133.62024     -1688.76124        28.26224                    342995.89211     -1267.97111        11.33411
E30                    -26564.12824       325.80824        27.11524                   -138013.37012       240.78112        13.60912
E36                    148696.71623     -2192.23823        18.06823                                                                
> 2022 11 17 13 14 59.9996554  0 10                      
G08  20492435.18224     90805.18524     -1305.97624        28.88824                                                                
G10                    -97049.52513      1049.55313        19.47213                   -110041.23913       786.66213        19.87513
G16  23709909.17113    316990.65113     -2704.33213        22.94813                                                                
G27  22259769.88213    391270.17513     -2940.95913        22.86213                                                                
G30                   -188862.97012      2631.68512        17.37712                                                                
R15                    141808.63712     -1473.40512        14.63512
R17  20270661.91313    332190.56613     -2898.85613        20.17313
E02                    170822.45824     -1688.83824        28.02724                    344265.79012     -1281.11712        13.69512
E30                    -26889.84424       325.71624        27.54924                   -138254.31812       253.23112        15.84112
E36                    150889.06423     -2192.34923        19.76823                                                                
> 2022 11 17 13 15 00.9996554  0 10                      
G08  20492684.01024     92111.42824     -1306.24224        28.66324                                                                
G10                    -98098.78413      1049.77913        19.23913                   -110824.27613       780.74213        19.14613
G16  23710429.61123    319694.70923     -2704.05823        23.15923                                                                
G27  22260328.09623    394209.53523     -2939.36023        23.18623                                                                
G30                   -191502.13713      2633.68713        18.57813                                                                
R15                    143281.74612     -1483.38812        14.83912
R17  20271189.84713    335086.94413     -2895.84313        20.26313
E02                    172511.42824     -1688.97024        27.97224                    345556.65212     -1279.06412        14.82812
E30                    -27215.35514       325.31514        27.40914                   -138500.41312       251.10812        15.30612
E36                    153081.85223     -2192.78723        19.08623                                                                
> 2022 11 17 13 15 01.9996553  0 10                      
G08  20492901.65924     93417.95324     -1306.52524        28.92324                                                                
G10                    -99147.22613      1052.38413        19.32113                   -111607.22013       781.77813        20.26513
G16  23710906.88113    322398.69713     -2701.51213        22.72813                                                                
G27  22260865.02413    397148.86113     -2939.11013        22.39513                                                                
G30                   -194141.03713      2629.05713        18.74713                                                                
R15                    144769.00712     -1489.24512        14.69212
R17  20271724.07713    337976.05813     -2898.68213        20.56913
E02                    174200.43224     -1689.00424        27.86924                    346843.98712     -1277.41712        14.70912
E30                    -27540.88324       325.52724        27.45324                   -138746.77512       243.50612        13.86312
E36                    155274.66223     -2192.81023        18.62723                                                                
> 2022 11 17 13 15 02.9996553  0 10                      
G08  20493152.88524     94724.85424     -1306.90124        28.59024                                                                
G10                   -100195.24213      1050.00313        18.88113                   -112390.02113       783.31913        19.57113
G16  23711424.02313    325103.06013     -2704.44413        23.06213                                                                
G27  22261427.43413    400088.27513     -2939.93913        22.46513                                                                
G30                   -196768.32913      2634.79013        17.59713                                                                
R15                    146268.27112     -1493.88712        14.44512
R17  20272268.80013    340878.45213     -2898.35613        21.07913
E02                    175889.60814     -1689.05014        28.09314                    348122.07312     -1282.69712        12.90512
E30                    -27866.12324       325.24124        27.09324                   -138988.61212       241.84212        14.48712
E36                    157467.92423     -2193.26223        18.74223                                                                
> 2022 11 17 13 15 03.9996552  0 10                      
G08  20493367.83724     96032.06624     -1307.21224        28.66524                                                                
G10                   -101242.78013      1043.72213        19.40413                   -113172.15813       784.16713        19.45313
G16  23711910.88613    327807.44613     -2706.56413        22.73313                                                                
G27  22261967.36113    403027.85513     -2938.02913        22.19413                                                                
G30                   -199408.03413      2631.63013        17.97213                                                                
R15                    147765.84212     -1493.34212        14.10412
R17  20272792.23813    343783.61613     -2901.49313        20.86913
E02                    177579.01024     -1689.40324        28.21024                    349399.98512     -1290.18212        13.35612
E30                    -28191.18624       325.06324        26.83224                   -139234.38712       240.31712        15.63512
E36                    159661.42313     -2193.68313        19.27713                                                                
> 2022 11 17 13 15 04.9996552  0 10                      
G08  20493620.26224     97339.68724     -1307.62124        28.75424                                                                
G10                   -102289.79413      1043.51613        19.38513                   -113954.08113       782.46713        19.87913
G16  23712420.83323    330512.06123     -2704.61423        23.44823                                                                
G27  22262524.37513    405969.57113     -2937.32613        22.35113                                                                
G30                   -202041.11713      2628.20213        18.92213                                                                
R15                    149259.15012     -1488.46312        14.23012
R17  20273332.76413    346683.06313     -2902.81713        21.47813
E02                    179268.67524     -1689.66424        28.38424                    350678.11712     -1284.86012        14.65912
E30                    -28516.01924       324.83324        26.75024                   -139480.46012       243.20312        16.16512
E36                    161855.30023     -2193.87723        18.45023                                                                
> 2022 11 17 13 15 05.9996551  0 10                      
G08  20493839.71024     98647.60824     -1307.92124        29.15624                                                                
G10                   -103336.56513      1049.18313        19.60913                   -114735.70913       779.42613        19.67313
G16  23712907.99523    333216.74023     -2704.68023        23.18123                                                                
G27  22263049.61113    408913.59913     -2942.32113        23.32113                                                                
G30                   -204673.57213      2629.62513        20.41613                                                                
R15                    150745.59812     -1493.27912        13.94612
R17  20273843.31013    349583.93213     -2898.63413        21.92913
E02                    180958.48124     -1689.80624        28.26324                    351956.25512     -1274.95812        15.92912
E30                    -28840.69924       324.68024        26.78924                   -139721.01812       245.02512        14.63112
E36                    164049.55323     -2194.25323        18.44323                                                                
> 2022 11 17 13 15 06.9996551  0 10                      
G08  20494089.43724     99955.72024     -1308.11224        29.08624                                                                
G10  25369701.72113   -104382.99513      1043.88413        20.55313                   -115517.04913       772.59713        19.09413
G16  23713424.83813    335921.41113     -2705.29713        23.26413                                                                
G27  22263605.12713    411856.89013     -2938.89613        23.00813                                                                
G30                   -207307.01513      2635.13913        20.39313                                                                
R15                    152230.12712     -1490.10212        14.00512
R17  20274386.83413    352485.21513     -2899.39913        20.75013
E02                    182648.24924     -1689.76824        28.06724                    353234.63712     -1270.84212        14.89012
E30                    -29165.38614       324.50914        26.42714                   -139966.55212       245.03112        15.67912
E36                    166243.82523     -2194.27223        18.08523                                                                
> 2022 11 17 13 15 07.9996550  0 10                      
G08  20494301.69024    101264.17024     -1308.45024        28.82624                                                                
G10  25369486.17013   -105429.07013      1045.60413        20.76913                   -116298.27413       773.56113        18.75813
G16  23713903.30613    338626.07613     -2704.82513        23.42813                                                                
G27  22264138.45813    414796.92413     -2938.42113        22.96513                                                                
G30                   -209939.22213      2637.11113        19.83513                                                                
R15                    153714.15012     -1485.32812        13.91312
R17  20274873.09713    355386.99413     -2901.97113        20.91713
E02                    184338.15324     -1689.90524        28.33024                    354513.01012     -1270.63612        13.91412
E30                    -29489.87924       324.49224        26.57524                   -140211.95812       241.93612        12.96312
E36                    168438.42523     -2194.60023        17.63523                                                                
> 2022 11 17 13 15 08.9996549  0 10                      
G08  20494521.43824    102572.85524     -1308.68624        28.73824                                                                
G10  25369262.22513   -106474.78213      1043.72413        20.90113                   -117079.14413       778.23213        18.74213
G16  23714387.77113    341330.87713     -2705.15513        23.47113                                                                
G27  22264674.48713    417736.95613     -2940.95913        22.37013                                                                
G30                   -212572.80413      2638.88713        19.93713                                                                
R15                    155199.59112     -1484.74012        14.24012
R17  20275398.93313    358289.34013     -2903.23413        21.55513
E02                    186028.23324     -1690.08024        28.19124                    355791.60112     -1268.97012        12.85612
E30                    -29814.24924       324.37024        27.20024                   -140456.81212       240.60712        14.33112
E36                    170633.41423     -2194.99023        18.89123                                                                
> 2022 11 17 13 15 09.9996549  0 10                      
G08  20494773.86324    103882.09424     -1309.23924        28.62224                                                                
G10                   -107519.91013      1044.45813        18.74313                   -117859.60713       780.25913        19.15013
G16  23714906.41224    344036.04324     -2705.16524        23.98524                                                                
G27  22265232.70013    420677.31413     -2939.72113        22.36613                                                                
G30                   -215204.06513      2635.83113        20.13413                                                                
R15                    156686.12712     -1483.94012        13.58712
R17  20275952.35013    361192.27413     -2905.41413        21.62413
E02                    187718.62824     -1690.39524        27.88024                    357070.34712     -1273.66312        14.05312
E30                    -30138.16924       323.92024        26.71924                   -140703.70212       242.46012        13.97912
E36                    172828.73723     -2195.32323        18.74223                                                                
> 2022 11 17 13 15 10.9996548  0 10                      
G08  20494991.21324    105191.60924     -1309.51524        28.90524                                                                
G10                   -108564.12213      1043.97513        19.85313                   -118639.73713       776.74213        20.20513
G16  23715387.57914    346741.21914     -2704.94414        23.63414                                                                
G27  22265754.93913    423617.59713     -2940.61613        22.27613                                                                
G30                   -217834.81813      2630.81313        20.62313                                                                
R15                    158174.14612     -1490.47812        14.03812
R17  20276468.59313    364095.66013     -2902.60513        20.12713
E02                    189409.12224     -1690.49424        28.15624                    358349.14812     -1276.41712        13.84312
E30                    -30462.14824       323.97824        26.47124                   -140949.52412       245.00812        15.07212
E36                    175024.34223     -2195.60523        18.47723                                                                
> 2022 11 17 13 15 11.9996548  0 10                      
G08  20495242.73924    106500.46024     -1308.85124        28.68224                                                                
G10                   -109609.35513      1045.66213        19.68513                   -119420.28413       776.92713        19.44013
G16  23715909.21823    349445.63723     -2704.41823        23.11723                                                                
G27  22266318.24913    426557.10013     -2938.60413        23.03113                                                                
G30                   -220466.20013      2629.70313        20.77113                                                                
R15                    159663.49212     -1495.77512        14.53012
R17  20277004.62213    366998.65113     -2899.60613        20.53813
E02                    191098.84724     -1689.72624        27.58924                    359627.70312     -1273.89712        14.03612
E30                    -30786.82724       324.67924        26.64924                   -141196.35312       249.83412        15.17912
E36                    177219.34413     -2194.77813        19.01313                                                                
> 2022 11 17 13 15 12.9996547  0 10                      
G08  20495461.28724    107808.86924     -1308.40924        28.79324                                                                
G10                   -110654.99813      1050.60613        19.13613                   -120201.19313       776.04613        18.94913
G16  23716389.78514    352149.33514     -2704.24414        23.74014                                                                
G27  22266843.18514    429495.56514     -2939.45414        23.68314                                                                
G30                   -223097.98713      2631.36313        20.85313                                                                
R15                    161160.73012     -1493.25212        14.47712
R17  20277510.67113    369901.31813     -2903.93213        20.62613
E02                    192787.95624     -1689.10824        27.89824                    360905.39512     -1283.29012        15.69912
E30                    -31112.03624       325.20924        26.63924                   -141442.22411       248.13511        12.49611
E36                    179413.53613     -2194.67713        18.38413                                                                
> 2022 11 17 13 15 13.9996547  0 10                      
G08  20495711.61424    109118.64424     -1309.77424        28.16024                                                                
G10  25368201.26013   -111699.24013      1050.38913        20.17513                   -120980.78213       778.20113        19.86713
G16  23716912.32324    354854.27124     -2704.93624        23.89124                                                                
G27  22267400.79914    432436.04514     -2940.83014        24.05914                                                                
G30                   -225726.57513      2632.42313        20.70413                                                                
R15                    162653.07612     -1480.65312        14.60112
R17  20278043.10313    372805.53913     -2908.59413        20.90013
E02                    194478.28124     -1690.32624        27.64024                    362184.17712     -1281.10412        15.71312
E30                    -31436.13024       324.09424        26.50024                   -141687.25212       243.41312        13.19812
E36                    181609.58813     -2194.25613        18.65413                                                                
> 2022 11 17 13 15 14.9996546  0 10                      
G08  20495930.46324    110428.50224     -1309.85924        28.49624                                                                
G10                   -112743.18713      1043.51213        19.99213                   -121760.43313       781.11013        19.82413
G16  23717390.79224    357559.06524     -2704.79424        24.11624                                                                
G27  22267929.03424    435375.97724     -2939.93324        23.51924                                                                
G30                   -228358.86313      2631.47213        19.41113                                                                
R15                    164127.52312     -1477.33612        14.53412
R17                    375710.00613     -2901.82713        19.64813
E02                    196168.54824     -1690.26624        27.48324                    363462.73312     -1274.10612        14.47212
E30                    -31760.17724       324.04724        26.46224                   -141928.35712       239.56512        13.41812
E36                    183805.80313     -2194.99713        18.59113                                                                
> 2022 11 17 13 15 15.9996546  0 10                      
G08  20496181.08924    111738.34024     -1309.83724        28.70724                                                                
G10                   -113787.17013      1045.07713        19.97613                   -122540.08713       779.58313        18.72213
G16  23717903.73724    360263.52224     -2704.45624        24.36024                                                                
G27  22268488.14613    438315.53113     -2939.97313        23.44013                                                                
G30                   -230985.82513      2630.83513        20.65013                                                                
R15                    165604.09112     -1487.26612        14.04512
R17  20279120.55713    378614.65213     -2901.22513        20.52913
E02                    197858.53124     -1689.98324        27.65124                    364741.32412     -1270.40412        14.71112
E30                    -32084.43914       323.47014        26.15114                   -142173.88512       243.15212        15.06112
E36                    186002.25413     -2196.54613        19.52913                                                                
> 2022 11 17 13 15 16.9996544  0 10                      
G08  20496399.63824    113049.15724     -1310.81824        28.74024                                                                
G10                   -114831.12813      1041.60913        19.61413                   -123318.75613       774.84413        19.04113
G16  23718393.59814    362968.89114     -2705.47814        24.04214                                                                
G27  22269026.27413    441255.91713     -2935.47813        22.61413                                                                
G30                   -233614.92013      2632.99813        21.35413                                                                
R15                    167095.47812     -1498.01612        14.03312
R17  20279633.50213    381520.57813     -2901.78613        20.64413
E02                    199549.47424     -1690.94324        27.78624                    366020.33712     -1267.39812        16.62712
E30                    -32407.87614       322.82514        26.55314                   -142418.26512       241.58812        14.43812
E36                    188198.97023     -2196.71623        18.79123                                                                
> 2022 11 17 13 15 17.9996544  0 10                      
G08  20496648.46624    114361.17224     -1312.01524        28.70324                                                                
G10                   -115873.05013      1039.59513        19.71513                   -124096.60613       773.27313        19.83013
G16  23718909.84014    365675.24214     -2706.95414        23.60614                                                                
G27  22269585.08713    444197.43613     -2942.53813        23.13013                                                                
G30                   -236244.65513      2625.79813        20.92113                                                                
R15                    168597.09812     -1503.16212        13.74112
R17  20280178.82413    384427.74113     -2903.43013        21.43813
E02                    201241.37324     -1691.89924        27.77624                    367300.24012     -1271.67412        13.50512
E30                    -32730.31124       322.43424        26.44024                   -142660.92412       241.20512        14.83812
E36                    190396.93023     -2197.95923        18.30823                                                                
> 2022 11 17 13 15 18.9996544  0 10                      
G08  20496865.81524    115674.10824     -1312.93624        29.03924                                                                
G10  25367121.40713   -116913.72913      1039.70513        20.52313                   -124873.79513       779.64113        19.14313
G16  23719394.90513    368382.19213     -2706.85313        23.13013                                                                
G27  22270112.42223    447138.95023     -2941.51423        23.30123                                                                
G30                   -238871.89013      2623.12913        20.59313                                                                
R15                    170106.60912     -1509.31012        13.49512
R17  20280707.95813    387335.80513     -2908.38413        21.84713
E02                    202934.04224     -1692.66924        27.37324                    368580.82812     -1278.51112        12.84612
E30                    -33051.99524       321.68424        26.73524                   -142908.11412       247.07412        13.52112
E36                    192595.85423     -2198.92423        18.68823                                                                
> 2022 11 17 13 15 19.9996544  0 10                      
G08  20497120.93824    116987.29424     -1313.18624        28.78524                                                                
G10  25366931.63913   -117954.08413      1039.94613        20.17213                   -125650.65213       779.62413        20.14913
G16  23719906.65023    371089.18523     -2706.99223        23.38823                                                                
G27  22270665.23923    450080.99023     -2942.04023        23.08823                                                                
G30                   -241499.11013      2625.61313        19.64913                                                                
R15                    171617.65712     -1504.13312        13.41412
R17  20281240.98913    390240.17213     -2912.62713        20.18413
E02                    204626.71324     -1692.67124        27.56224                    369861.30411     -1287.99111        10.80811
E30                    -33373.55214       321.35814        26.30614                   -143165.27412       243.62512        15.28812
E36                    194794.62023     -2198.76623        18.43423                                                                
> 2022 11 17 13 15 20.9996543  0 10                      
G08  20497340.08724    118301.25024     -1313.95624        28.37924                                                                
G10  25366699.59913   -118993.52813      1039.67413        20.02213                   -126426.72013       776.26013        20.39213
G16  23720391.11514    373796.81814     -2707.82414        23.71914                                                                
G27  22271200.06914    453024.19514     -2943.09014        23.57514                                                                
G30                   -244124.90413      2628.49813        19.77813                                                                
R15                    173120.44612     -1501.01312        14.22812
R17  20281768.02413    393145.10413     -2905.50513        21.09113
E02                    206320.06224     -1693.34924        27.62224                    371142.50211     -1300.33211        10.04111
E30                    -33694.52924       320.97824        26.72224                   -143400.20312       248.27012        14.10612
E36                    196994.55813     -2198.68213        18.85713                                                                
> 2022 11 17 13 15 21.9996543  0 10                      
G08  20497588.61524    119615.52624     -1314.27624        28.63424                                                                
G10  25366503.23513   -120032.48813      1038.02013        20.04013                   -127202.67713       775.13313        19.33213
G16  23720904.36023    376504.54323     -2707.72423        23.25623                                                                
G27  22271756.18414    455966.78014     -2941.91314        23.81714                                                                
G30                   -246750.41813      2627.68913        19.19613                                                                
R15                    174622.80712     -1501.13112        14.63612
R17  20282324.43913    396049.66413     -2905.23913        21.57113
E02                    208013.48624     -1693.42424        27.42024                    372423.67211     -1295.25611        11.10711
E30                    -34015.26824       320.73824        26.50524                   -143647.69712       251.10312        15.16712
E36                    199194.62223     -2200.06523        17.98723                                                                
> 2022 11 17 13 15 22.9996541  0 10                      
G08  20497809.86224    120929.94224     -1314.41524        28.37324                                                                
G10  25366274.49413   -121071.20013      1038.27813        20.72113                   -127978.40913       772.46013        20.33913
G16  23721393.62113    379212.25113     -2708.32413        22.97513                                                                
G27  22272289.51523    458909.67623     -2942.89723        23.42823                                                                
G30                   -249375.91913      2629.07513        19.37713                                                                
R15                    176125.10612     -1501.25512        14.95012
R17  20282815.49913    398951.95113     -2910.66013        22.56013
E02                    209706.95324     -1693.46724        27.62224                    373704.36411     -1281.50911         7.00011
E30                    -34336.02024       320.75224        26.53524                   -143895.74312       244.57612        14.23412
E36                    201394.74223     -2200.11923        18.59923                                                                
> 2022 11 17 13 15 23.9996541  0 10                      
G08  20498055.39224    122244.48324     -1314.54124        28.55124                                                                
G10  25366078.72913   -122108.82413      1036.97313        20.50313                   -128753.96113       778.43813        19.47613
G16  23721909.86413    381919.91713     -2708.02613        23.40613                                                                
G27  22272846.22923    461852.25523     -2942.57923        23.11323                                                                
G30                   -252000.30713      2625.55213        19.56513                                                                
R15                    177627.52112     -1506.10712        14.65812
R17  20283358.72313    401862.85913     -2913.18913        22.86113
E02                    211400.47824     -1693.52524        27.60924                    374985.56111     -1278.41211        11.99511
E30                    -34656.75724       320.73624        26.79724                   -144144.35512       244.69912        15.19312
E36                    203595.06023     -2200.31823        19.29323                                                                
> 2022 11 17 13 15 24.9996541  0 10                      
G08  20498276.93824    123558.97624     -1314.49424        28.41524                                                                
G10                   -123138.62513      1036.94013        19.13513                   -129529.36413       779.06913        20.07813
G16  23722397.92614    384627.30614     -2707.65014        23.71114                                                                
G27  22273379.56013    464794.11413     -2942.10613        23.14613                                                                
G30                   -254625.29113      2626.20913        19.43713                                                                
R15                    179129.24912     -1507.09912        14.19912
R17  20283865.97213    404774.02713     -2915.48713        22.39113
E02                    213093.63524     -1693.15724        26.86024                    376266.40311     -1270.12111        12.00611
E30                    -34977.85724       321.10124        26.18824                   -144392.71512       238.48412        15.65612
E36                    205795.31223     -2200.25323        18.66123                                                                
> 2022 11 17 13 15 25.9996541  0 10                      
G08  20498523.66714    124874.21614     -1315.22814        28.44814                                                                
G10                   -124177.75513      1040.25413        19.55213                   -130304.78513       773.67913        20.01713
G16  23722910.27124    387334.61124     -2707.30624        23.84824                                                                
G27  22273938.67313    467736.86213     -2942.18913        23.16813                                                                
G30                   -257250.21913      2626.70113        19.80913                                                                
R15                    180630.91512     -1503.02212        14.02212
R17  20284389.40913    407685.08513     -2911.96613        22.56313
E02                    214786.92324     -1693.28824        26.92124                    377547.21711     -1271.65111        11.93711
E30                    -35298.78214       320.50214        26.55214                   -144645.08812       245.95412        13.10612
E36                    207995.53723     -2200.22523        18.84323                                                                
> 2022 11 17 13 15 26.9996540  0 10                      
G08  20498744.91424    126189.38424     -1315.16924        28.22924                                                                
G10  25365425.18213   -125221.72113      1039.22913        20.27813                   -131079.64413       772.41013        19.52113
G16  23723402.53014    390042.29714     -2708.02214        23.60414                                                                
G27  22274473.80324    470679.49024     -2942.62824        23.80024                                                                
G30                   -259874.65013      2628.06313        20.07513                                                                
R15                    182133.30212     -1500.53412        14.01312
R17  20284912.54713    410597.23213     -2913.52913        22.08713
E02                    216480.54724     -1693.62424        27.30224                    378828.84012     -1282.20312        15.07012
E30                    -35619.42624       320.64324        26.49324                   -144882.76512       241.70712        14.21712
E36                    210196.42623     -2200.88923        18.50423                                                                
> 2022 11 17 13 15 27.9996540  0 10                      
G08  20498997.93924    127505.13124     -1315.74724        28.25424                                                                
G10  25365220.12413   -126260.38613      1032.73213        20.81613                   -131853.99613       770.07613        20.91013
G16  23723913.37714    392750.17114     -2707.77014        23.93914                                                                
G27  22275032.01614    473622.39614     -2942.98514        23.61614                                                                
G30                   -262497.30013      2628.91513        19.85913                                                                
R15                    183634.92012     -1501.22212        13.76812
R17  20285444.97913    413509.90913     -2912.66513        21.51413
E02                    218174.49524     -1693.94824        27.32824                    380110.32912     -1291.76112        15.90712
E30                    -35939.60824       320.18324        26.65724                   -145128.62911       237.75011        12.21911
E36                    212397.82023     -2201.39423        19.24323                                                                
> 2022 11 17 13 15 28.9996539  0 10                      
G08  20499214.98924    128821.17624     -1316.04524        28.19624                                                                
G10                   -127287.47813      1033.81913        19.88613                   -132628.17713       772.32013        20.17913
G16  23724399.64024    395458.35624     -2708.18524        24.00124                                                                
G27  22275563.54814    476565.49214     -2943.42314        23.64414                                                                
G30                   -265120.59013      2624.38213        19.45013                                                                
R15                    185134.99512     -1502.78912        13.81212
R17  20285957.02413    416423.10613     -2909.95813        22.11513
E02                    219868.66124     -1694.16724        27.75424                    381391.86212     -1291.56112        15.87012
E30                    -36259.64924       320.04024        26.91524                   -145371.70412       240.60312        14.69812
E36                    214599.49323     -2201.67423        19.42523                                                                
> 2022 11 17 13 15 29.9996539  0 10                      
G08  20499467.71424    130137.36024     -1316.18424        28.32024                                                                
G10  25364798.91513   -128319.36113      1039.46013        21.28513                   -133402.12113       772.09613        19.39613
G16  23724924.27714    398166.41714     -2708.28514        23.87514                                                                
G27  22276123.26124    479508.32124     -2942.82924        23.94324                                                                
G30                   -267743.84813      2621.46713        20.02113                                                                
R15                    186632.98612     -1493.12012        13.96512
R17  20286513.43913    419334.05413     -2910.56313        22.11013
E02                    221562.74024     -1694.07924        27.37824                    382673.88712     -1295.99012        14.78512
E30                    -36579.71624       320.06824        26.46924                   -145611.84812       239.48712        15.47212
E36                    216801.24013     -2201.86313        19.73313                                                                
> 2022 11 17 13 15 30.9996538  0 10                      
G08  20499689.56024    131453.05424     -1315.69424        28.57624                                                                
G10  25364583.36413   -129361.47813      1043.89513        20.31713                   -134175.91013       774.18813        19.92913
G16  23725403.04524    400874.34324     -2707.92624        23.80224                                                                
G27  22276651.19524    482450.64924     -2942.32824        24.06724                                                                
G30                   -270366.45413      2622.05713        19.96013                                                                
R15                    188130.10712     -1493.39212        13.97612
R17  20287038.97513    422243.11113     -2915.85213        21.53913
E02                    223256.73124     -1693.99124        27.48824                    383959.62212     -1284.27212        14.66212
E30                    -36899.91624       320.20024        26.28224                   -145858.60812       241.03212        13.90312
E36                    219002.90123     -2201.66123        19.68823                                                                
> 2022 11 17 13 15 31.9996538  0 10                      
G08  20499940.48724    132769.90524     -1316.85224        28.26824                                                                
G10                   -130404.22113      1041.82513        19.70413                   -134949.33513       773.16613        19.38913
G16  23725919.88713    403582.50813     -2708.27113        23.46313                                                                
G27  22277212.40714    485394.32714     -2943.37514        23.67614                                                                
G30                   -272988.77013      2618.12113        19.56413                                                                
R15                    189626.66512     -1494.63712        14.54412
R17  20287581.00013    425152.47013     -2915.70413        22.58213
E02                    224951.18024     -1694.44924        27.65224                    385247.26612     -1276.56212        12.50112
E30                    -37219.59524       319.67924        26.17824                   -146106.30012       248.67812        16.46112
E36                    221205.29613     -2202.73013        20.10113                                                                
> 2022 11 17 13 15 32.9996537  0 10                      
G08  20500159.33524    134087.15124     -1317.24624        28.69924                                                                
G10  25364137.57313   -131445.61813      1033.90413        20.09113                   -135722.28013       775.64813        20.01913
G16  23726404.65213    406291.04713     -2708.98513        23.18913                                                                
G27  22277746.03723    488337.64523     -2943.31823        23.05223                                                                
G30                   -275610.66213      2617.84213        19.52213                                                                
R15                    191123.30412     -1500.25312        14.95712
R17  20288094.24513    428067.49613     -2914.87613        22.61613
E02                    226645.79624     -1694.61624        27.29524                    386530.37711     -1263.92711        10.76511
E30                    -37539.02914       318.87314        26.04814                   -146339.72712       235.45512        15.98612
E36                    223407.91823     -2202.62223        20.86323                                                                
> 2022 11 17 13 15 33.9996536  0 10                      
G08  20500381.48124    135404.81824     -1317.66724        28.25424                                                                
G10  25363907.63213   -132480.20713      1031.94413        21.16313                   -136494.83513       773.65413        20.21113
G16  23726879.52323    408999.85223     -2708.80523        23.02823                                                                
G27  22278273.07213    491281.24013     -2944.51313        23.42413                                                                
G30                   -278232.16413      2619.06613        19.06513                                                                
R15                    192620.65512     -1507.18612        15.57612
R17  20288637.76813    430983.14413     -2913.15413        23.16413
E02                    228340.75524     -1694.95924        27.31524                    387781.67612     -1268.01512        12.81812
E30                    -37858.23324       319.20424        26.72924                   -146577.92612       243.87512        17.17912
E36                    225611.09723     -2203.17923        19.94123                                                                
> 2022 11 17 13 15 34.9996536  0 10                      
G08  20500631.50824    136722.23824     -1317.41924        28.11424                                                                
G10  25363712.46713   -133514.99713      1037.72013        20.91613                   -137267.49313       773.17613        20.61313
G16  23727395.76613    411708.01813     -2707.51313        22.60613                                                                
G27  22278825.59013    494224.41413     -2945.82413        22.79513                                                                
G30                   -280853.82413      2617.99213        19.37313                                                                
R15                    194128.39012     -1510.80712        15.66112
R17  20289174.39714    433898.88814     -2915.70814        23.68114
E02                    230035.28124     -1694.52624        27.55324                    389050.16812     -1272.57012        14.09512
E30                    -38177.78324       319.55024        26.22924                   -146819.77412       243.58012        16.50812
E36                    227814.04113     -2200.62613        20.08513                                                                
> 2022 11 17 13 15 35.9996535  0 10                      
G08  20500856.05324    138039.58024     -1317.34224        28.58624                                                                
G10  25363479.52813   -134549.87813      1040.03513        20.11013                   -138040.44513       777.72313        20.04113
G16  23727882.92823    414416.04323     -2708.02623        23.01423                                                                
G27  22279359.22113    497167.12213     -2943.57713        23.33013                                                                
G30                   -283475.49713      2620.17713        19.03913                                                                
R15                    195643.05812     -1507.86312        15.69712
R17  20289675.35014    436814.51914     -2916.38414        23.68614
E02                    231729.56324     -1694.28224        27.56924                    390318.10712     -1282.25712        13.99012
E30                    -38497.64414       319.15014        26.45314                   -147061.82912       241.42512        16.35612
E36                    230016.39023     -2202.34923        19.70223                                                                
> 2022 11 17 13 15 36.9996535  0 10                      
G08  20501104.58124    139357.85124     -1318.27024        28.35524                                                                
G10  25363291.25913   -135583.62413      1031.71713        21.52613                   -138812.20513       772.89313        19.79913
G16  23728394.37413    417124.71113     -2710.99413        22.25013                                                                
G27  22279922.53113    500110.47013     -2941.44513        22.70813                                                                
G30                   -286096.29113      2623.90913        19.44113                                                                
R15                    197148.65512     -1502.77612        16.06112
R17  20290231.76513    439731.34113     -2919.45213        23.25813
E02                    233424.50824     -1694.94524        27.15024                    391586.06312     -1289.58412        15.30812
E30                    -38816.65924       319.01524        26.45624                   -147302.57212       238.08312        15.51812
E36                    232220.14213     -2202.18113        20.60613                                                                
> 2022 11 17 13 15 37.9996534  0 10                      
G08  20501325.22814    140677.22214     -1319.20614        28.52914                                                                
G10  25363074.80913   -136616.45713      1027.28113        20.86113                   -139583.50413       767.55513        20.87813
G16  23728877.94013    419833.80013     -2707.78913        22.17113                                                                
G27  22280456.16123    503054.56323     -2944.09323        23.21123                                                                
G30                   -288716.20913      2627.07213        18.53213                                                                
R15                    198649.60812     -1509.57912        17.18712
R17  20290742.91113    442649.91513     -2921.17413        22.71313
E02                    235120.14324     -1695.63524        27.26024                    392852.88512     -1288.98312        15.17512
E30                    -39135.24624       318.58824        26.63524                   -147541.00012       239.22412        15.79912
E36                    234424.45813     -2204.71013        20.62313                                                                
> 2022 11 17 13 15 38.9996534  0 10                      
G08  20501580.05124    141996.72324     -1319.50224        28.69824                                                                
G10  25362876.64613   -137648.99113      1034.94013        21.03913                   -140354.45113       770.67813        19.33213
G16  23729394.48213    422543.28613     -2708.59113        21.54313                                                                
G27  22281005.98114    505998.86714     -2944.71814        23.70414                                                                
G30                   -291340.10112      2629.58312        17.10012                                                                
R15                    200159.89112     -1508.43012        17.48112
R17  20291284.63613    445570.40813     -2914.11913        22.70213
E02                    236816.01314     -1696.15514        27.13614                    394118.13612     -1284.28612        13.80012
E30                    -39453.34024       318.09424        26.70424                   -147781.73212       240.56512        15.68712
E36                    236629.20413     -2204.96113        21.05813                                                                
> 2022 11 17 13 15 39.9996533  0 10                      
G08  20501800.69924    143316.43024     -1319.70724        29.14824                                                                
G10  25362638.91013   -138681.06913      1038.15213        20.58913                   -141125.14013       775.07713        19.50113
G16  23729881.94513    425252.95913     -2708.80613        21.63513                                                                
G27  22281540.81013    508943.13413     -2945.52313        22.55713                                                                
G30                   -293971.12512      2621.99512        17.47312                                                                
R15                    201674.37813     -1507.54213        18.71713
R17  20291805.97513    448482.01213     -2918.96213        22.99913
E02                    238512.04224     -1696.02924        27.42724                    395384.05812     -1281.81112        14.10112
E30                    -39771.39024       318.05024        26.36324                   -148019.58112       238.03712        14.14912
E36                    238834.22623     -2205.02223        20.09223                                                                
> 2022 11 17 13 15 40.9996533  0 10                      
G08  20502051.92524    144636.55024     -1320.12024        29.30524                                                                
G10  25362440.74813   -139712.40613      1029.79513        22.31513                   -141895.32513       771.73913        19.53813
G16  23730400.28613    427962.74013     -2711.23813        21.64713                                                                
G27  22282101.12224    511887.63824     -2944.50424        23.67324                                                                
G30                   -296591.42312      2613.93312        16.34812                                                                
R15                    203180.30013     -1505.21713        19.26813
R17  20292338.40614    451401.65914     -2920.26314        23.96514
E02                    240208.34014     -1696.36714        27.10914                    396652.46612     -1284.16612        14.74012
E30                    -40089.12824       317.73824        26.51824                   -148256.60912       240.99812        12.96012
E36                    241039.56723     -2205.34023        19.84323                                                                
> 2022 11 17 13 15 41.9996532  0 10                      
G08  20502272.57224    145956.88024     -1320.33024        29.05224                                                                
G10  25362240.18613   -140743.68213      1025.68013        20.53213                   -142665.39313       769.16713        19.71513
G16  23730883.25113    430672.52213     -2714.90413        21.39913                                                                
G27  22282629.05713    514832.08413     -2939.16613        22.46413                                                                
G30                   -299199.78113      2616.44913        18.74613                                                                
R15                    204679.11713     -1503.76713        17.69613
R17  20292859.44613    454321.50113     -2921.76613        23.10713
E02                    241904.60824     -1696.26824        27.32324                    397921.97612     -1290.47712        15.35112
E30                    -40406.86224       317.73424        26.59524                   -148497.89912       244.28012        16.58412
E36                    243245.00813     -2205.65313        20.95613                                                                
> 2022 11 17 13 15 42.9996532  0 10                      
G08  20502525.89724    147277.20424     -1320.32324        29.37924                                                                
G10  25362039.32613   -141774.15713      1026.89513        20.82213                   -143435.00313       767.87313        19.62413
G16  23731398.59513    433382.46913     -2709.01113        21.53013                                                                
G27  22283189.66913    517776.93613     -2944.58113        21.63713                                                                
G30                   -301817.89613      2616.96313        17.71213                                                                
R15                    206177.66013     -1503.68913        17.62613
R17  20293395.77413    457241.93713     -2920.59413        23.16713
E02                    243601.28524     -1696.67824        27.26024                    399195.12812     -1295.97012        13.45812
E30                    -40724.14924       317.28724        26.60824                   -148736.87212       239.04312        15.21212
E36                    245451.13723     -2206.13023        18.23223                                                                
> 2022 11 17 13 15 43.9996531  0 10                      
G08  20502743.54624    148598.40824     -1321.20424        29.21824                                                                
G10  25361811.78313   -142804.28213      1029.51413        20.98313                   -144204.26113       767.73013        20.27813
G16  23731886.05713    436092.75313     -2707.64413        20.99313                                                                
G27  22283733.49213    520721.76213     -2948.72413        21.46913                                                                
G30                   -304436.28512      2619.09312        16.99412                                                                
R15                    207677.25912     -1511.35112        16.81512
R17  20293956.38613    460162.98513     -2917.68313        23.37613
E02                    245298.15324     -1696.86724        27.07124                    400469.71412     -1287.39612        13.99112
E30                    -41041.33924       317.19124        26.47724                   -148972.14412       236.46512        15.04312
E36                    247657.41422     -2206.27722        15.40922                                                                
> 2022 11 17 13 15 44.9996531  0 10                      
G08  20502995.37224    149919.95524     -1321.54724        28.80424                                                                
G10  25361616.01913   -143832.78913      1031.63513        20.82113                   -144973.34413       772.49913        20.49113
G16  23732403.79913    438803.04213     -2706.69713        20.66613                                                                
G27  22284278.21513    523666.80013     -2946.71913        21.83613                                                                
G30                   -307053.20413      2618.88813        17.90313                                                                
R15                    209192.16713     -1515.65113        17.87213
R17  20294473.52814    463084.50614     -2919.11814        23.61714
E02                    246995.09014     -1696.84714        26.92214                    401742.94212     -1283.99412        15.12512
E30                    -41358.29524       316.95524        26.47624                   -149206.04912       238.44112        14.11712
E36                    249864.07823     -2206.66323        17.78323                                                                
> 2022 11 17 13 15 45.9996530  0 10                      
G08  20503215.41924    151241.79224     -1321.83724        29.06424                                                                
G10  25361386.67713   -144863.95813      1025.70313        20.65513                   -145741.92313       769.20513        20.38913
G16  23732881.66813    441510.65513     -2711.98013        20.71213                                                                
G27  22284817.84213    526612.00213     -2941.59513        21.15413                                                                
G30                   -309671.21213      2621.99013        17.98513                                                                
R15                    210713.30813     -1512.86513        18.50813
R17  20294987.67214    466006.66914     -2923.26714        23.54614
E02                    248692.34424     -1697.25424        27.18224                    403015.44412     -1281.40212        15.95112
E30                    -41675.02624       316.73124        26.49624                   -149453.99512       236.83212        15.10512
E36                    252071.04923     -2206.97223        18.96623                                                                
> 2022 11 17 13 15 46.9996530  0 10                      
G08  20503469.34424    152563.95024     -1322.15824        29.08624                                                                
G10  25361190.31313   -145893.14513      1025.19413        20.01713                   -146510.18413       764.58013        19.41313
G16  23733399.40913    444219.22313     -2712.66313        21.83213                                                                
G27  22285372.15813    529557.26213     -2946.71113        21.07913                                                                
G30                   -312292.51512      2627.56712        17.03912                                                                
R15                    212224.14713     -1513.41313        17.66613
R17  20295526.99914    468929.10814     -2924.60514        23.66314
E02                    250389.78324     -1697.43924        27.16224                    404286.85312     -1280.22212        15.67912
E30                    -41991.60224       316.57624        26.27524                   -149693.83612       243.79812        17.38812
E36                    254278.29523     -2207.24623        18.79823                                                                
> 2022 11 17 13 15 47.9996529  0 10                      
G08  20503691.79024    153886.66424     -1322.71424        28.74624                                                                
G10                   -146921.48213      1033.32513        19.94213                   -147277.89013       765.26313        19.21613
G16  23733881.77613    446930.26413     -2709.54113        21.96713                                                                
G27  22285897.09413    532502.97713     -2951.41213        21.92813                                                                
G30                   -314918.58312      2624.74312        14.18512                                                                
R15                    213734.96013     -1516.26213        18.08313
R17  20296040.24413    471852.40713     -2918.33513        22.82613
E02                    252087.46924     -1697.68524        27.31424                    405556.18212     -1277.29612        14.44612
E30                    -42307.82924       316.22724        26.32224                   -149932.89412       237.50112        17.39012
E36                    256486.12423     -2207.82923        19.36023                                                                
> 2022 11 17 13 15 48.9996529  0 10                      
G08  20503943.61524    155209.72624     -1323.06324        28.36124                                                                
G10  25360759.21213   -147949.08513      1026.33613        20.40313                   -148045.56813       770.70113        19.01013
G16  23734398.61813    449641.42013     -2711.21413        22.07213                                                                
G27  22286467.30013    535448.76213     -2948.07213        22.90413                                                                
G30                   -317546.83012      2622.47312        15.99312                                                                
R15                    215252.72813     -1508.92813        19.07813
R17  20296615.24613    474776.24913     -2922.99113        23.00113
E02                    253785.50724     -1698.03824        27.52324                    406825.89012     -1282.59712        15.32612
E30                    -42623.73024       315.90124        26.03324                   -150171.97012       239.12712        16.44312
E36                    258694.22623     -2208.10223        19.67623                                                                
> 2022 11 17 13 15 49.9996528  0 10                      
G08  20504163.96324    156533.21224     -1323.48624        29.00524                                                                
G10  25360541.86213   -148976.56713      1023.32813        21.08913                   -148812.72213       774.33313        18.34513
G16  23734892.67613    452352.71813     -2711.54913        22.01613                                                                
G27  22286996.13413    538394.62313     -2946.02413        23.20713                                                                
G30                   -320166.88812      2614.02012        15.89412                                                                
R15                    216759.09813     -1511.36713        17.50113
R17  20297141.98113    477700.66013     -2928.84513        23.16713
E02                    255483.63824     -1698.13124        27.26724                    408097.65812     -1284.30212        14.10212
E30                    -42939.51424       315.78424        26.11024                   -150411.02612       242.65312        16.33512
E36                    260902.80423     -2208.57823        19.55123                                                                
> 2022 11 17 13 15 50.9996528  0 10                      
G08  20504416.98724    157857.13724     -1323.92424        28.75424                                                                
G10  25360347.89613   -150003.35713      1023.79013        21.87013                   -149579.50213       766.35413        18.77913
G16  23735412.81613    455064.08713     -2711.87413        21.86313                                                                
G27  22287557.94523    541340.70423     -2946.08123        23.45323                                                                
G30                   -322784.10712      2615.20712        14.93012                                                                
R15                    218271.70913     -1518.07013        18.86413
R17  20297672.91313    480625.70613     -2926.73013        22.40813
E02                    257182.02024     -1698.38224        27.33624                    409373.56612     -1284.97912        13.43912
E30                    -43255.01024       315.49624        26.12824                   -150649.52312       240.47512        17.34712
E36                    263111.66113     -2209.04913        20.29313                                                                
> 2022 11 17 13 15 51.9996527  0 10                      
G08  20504640.33324    159181.21924     -1324.08224        28.71224                                                                
G10  25360121.25313   -151029.96213      1023.23413        21.40913                   -150345.92413       764.40913        20.17213
G16  23735897.58013    457775.73513     -2715.72113        22.45913                                                                
G27  22288094.57313    544286.86513     -2946.14013        23.14113                                                                
G30                   -325400.80512      2606.13312        14.87812                                                                
R15                    219794.27713     -1518.19613        18.69713
R17  20298156.47913    483551.00113     -2922.42713        21.99113
E02                    258880.53924     -1698.51924        27.25524                    410654.98512     -1286.35812        16.17112
E30                    -43570.30424       315.29424        26.41124                   -150888.18212       237.91112        16.94212
E36                    265320.73813     -2209.23113        20.02413                                                                
> 2022 11 17 13 15 52.9996527  0 10                      
G08  20504894.25724    160505.83024     -1324.61124        29.13524                                                                
G10  25359916.79513   -152055.88913      1028.72713        21.54013                   -151112.02913       762.17713        19.23513
G16  23736410.52513    460487.55513     -2713.33213        22.70213                                                                
G27  22288647.99013    547233.24513     -2946.34913        23.01513                                                                
G30                   -328002.34712      2603.98412        15.21412                                                                
R15                    221313.99713     -1524.74413        18.51213
R17  20298705.69813    486477.16413     -2923.55513        21.14013
E02                    260579.37024     -1698.83124        27.24224                    411939.91212     -1282.49612        16.85812
E30                    -43885.39524       315.09124        26.57024                   -151126.46512       234.83312        16.56012
E36                    267530.21623     -2209.47923        19.65923                                                                
> 2022 11 17 13 15 53.9996526  0 10                      
G08  20505114.00524    161830.78924     -1324.95924        29.34324                                                                
G10  25359696.44713   -153081.90613      1024.17613        21.42713                   -151877.97713       764.70113        19.02913
G16  23736894.69013    463199.41013     -2709.82813        22.39713                                                                
G27  22289177.42413    550179.79613     -2949.20213        22.37113                                                                
G30                   -330604.02912      2606.78512        15.71012                                                                
R15                    222836.28112     -1526.72412        16.91812
R17  20299232.73413    489403.64813     -2925.96313        22.90913
E02                    262278.34524     -1698.97524        26.93624                    413225.12112     -1283.87912        14.12612
E30                    -44200.28124       314.88624        26.46424                   -151364.70712       237.36412        16.90912
E36                    269739.97923     -2209.76323        18.20423                                                                
> 2022 11 17 13 15 54.9996526  0 10                      
G08  20505363.73224    163156.12224     -1325.33324        29.11824                                                                
G10  25359513.57413   -154111.28013      1020.12413        20.70113                   -152643.41213       762.95913        19.07313
G16  23737411.53213    465911.50613     -2709.34313        21.69513                                                                
G27  22289744.03113    553126.46513     -2946.39313        21.29913                                                                
G30                   -333211.46512      2605.37312        15.51012                                                                
R15                    224358.77913     -1519.34813        17.77813
R17  20299781.05413    492330.80713     -2926.86413        22.96113
E02                    263977.59324     -1699.24824        26.73024                    414510.68712     -1286.33612        14.73012
E30                    -44514.87924       314.59824        26.59424                   -151602.63812       238.69512        14.94712
E36                    271950.16523     -2210.18623        19.14023                                                                
> 2022 11 17 13 15 55.9996525  0 10                      
G08  20505584.67924    164481.84624     -1325.72424        29.09924                                                                
G10  25359275.23913   -155133.54013      1019.90913        20.59713                   -153408.45913       764.50813        19.03113
G16  23737906.48913    468624.04213     -2714.95913        22.35413                                                                
G27  22290269.86713    556073.39113     -2949.31313        22.62713                                                                
G30                   -335821.46512      2610.58912        15.92312                                                                
R15                    225874.01112     -1516.82812        16.75712
R17  20300284.10613    495258.51913     -2927.28613        22.34113
E02                    265677.08714     -1699.73214        27.29014                    415796.53112     -1286.55712        14.80012
E30                    -44829.20614       313.85214        26.55814                   -151840.52712       239.94312        14.21312
E36                    274160.82323     -2210.65723        19.14223                                                                
> 2022 11 17 13 15 56.9996525  0 10                      
G08  20505838.30424    165808.06724     -1326.22024        29.31724                                                                
G10  25359072.28013   -156154.96013      1022.32613        21.20613                   -154173.12013       763.51913        19.89013
G16  23738417.33613    471336.72113     -2716.40213        21.92413                                                                
G27  22290834.37614    559020.53714     -2947.82114        23.72414                                                                
G30                   -338435.44212      2611.13912        16.22612                                                                
R15                    227385.92713     -1517.70413        17.62813
R17  20300833.32613    498186.85613     -2927.69613        22.83813
E02                    267376.83514     -1699.74514        26.90714                    417082.11312     -1284.41412        14.98112
E30                    -45143.24714       313.42614        26.37214                   -152077.97312       238.03412        16.46912
E36                    276371.85523     -2211.03223        19.07023                                                                
> 2022 11 17 13 15 57.9996524  0 10                      
G08  20506061.94924    167134.61124     -1326.54424        29.49124                                                                
G10  25358848.63413   -157179.84213      1022.38913        21.02513                   -154937.45813       763.84913        19.98213
G16  23738902.70013    474049.37113     -2712.00513        22.85513                                                                
G27  22291364.41013    561967.84713     -2947.70413        22.81213                                                                
G30                   -341054.24712      2613.70012        16.02212                                                                
R15                    228901.92913     -1521.96113        18.79613
R17  20301370.25413    501116.30213     -2930.87613        22.16613
E02                    269076.84024     -1700.00524        26.97024                    418368.11211     -1282.45611        12.44911
E30                    -45457.15024       313.90324        26.50324                   -152315.49512       239.01012        15.13312
E36                    278583.13023     -2211.27523        18.54123                                                                
> 2022 11 17 13 15 58.9996523  0 10                      
G08  20506288.59225    168461.49325     -1326.88225        29.69025                                                                
G10  25358626.18813   -158203.01513      1023.84913        20.97913                   -155701.42513       763.70713        20.02613
G16  23739385.96513    476762.36513     -2711.96013        22.93913                                                                
G27  22291886.34823    564915.18423     -2947.33723        23.20223                                                                
G30                   -343674.85112      2615.49712        15.98212                                                                
R15                    230423.41213     -1529.83213        18.69513
R17  20301902.38513    504045.43513     -2932.03713        21.72713
E02                    270777.01024     -1700.17124        27.17424                    419654.35812     -1282.30012        14.04512
E30                    -45770.81324       313.66324        26.11924                   -152552.55512       235.46912        14.09412
E36                    280794.77123     -2211.64223        19.66223                                                                
> 2022 11 17 13 15 59.9996523  0 10                      
G08  20506541.01725    169788.85425     -1327.36125        29.66225                                                                
G10  25358432.82213   -159225.59613      1023.47813        20.78113                   -156465.08613       762.98413        19.94013
G16  23739901.90813    479475.49413     -2711.54013        22.67713                                                                
G27  22292445.76113    567862.70113     -2947.73413        23.01413                                                                
G30                   -346291.01512      2615.45812        15.81312                                                                
R15                    231945.30113     -1529.19113        18.47213
R17  20302415.03113    506977.55513     -2925.76413        21.23213
E02                    272477.41324     -1700.40324        27.48324                    420940.50712     -1280.95812        14.87712
E30                    -46084.06824       313.25524        26.32424                   -152789.63212       234.13912        13.89012
E36                    283006.79623     -2212.02423        19.71023                                                                
> 2022 11 17 13 16 00.9996522  0 10                      
G08  20506760.46524    171116.72024     -1327.86624        29.43624                                                                
G10  25358206.47913   -160247.62413      1023.53213        21.15313                   -157228.21113       766.97413        19.21813
G16  23740398.66413    482188.90813     -2713.23513        23.14113                                                                
G27  22292981.19013    570810.84613     -2946.90213        23.46113                                                                
G30                   -348908.39612      2612.77912        15.96312                                                                
R15                    233468.01813     -1520.50013        18.13713
R17  20302962.45213    509907.46113     -2932.19413        22.09613
E02                    274178.17924     -1700.76624        27.30124                    422227.04312     -1276.59212        15.79812
E30                    -46397.14824       313.07924        26.75224                   -153026.57612       232.29112        16.71212
E36                    285219.40223     -2212.60623        19.80123                                                                
> 2022 11 17 13 16 01.9996522  0 10                      
G08  20507014.98914    172445.36914     -1328.06814        29.48314                                                                
G10  25358020.00813   -161269.95513      1016.90613        21.18713                   -157990.96413       763.15113        19.75413
G16  23740910.11013    484902.53713     -2713.09113        22.74813                                                                
G27  22293544.20113    573758.73013     -2946.98613        23.32813                                                                
G30                   -351526.11012      2608.99412        16.06212                                                                
R15                    234991.73413     -1519.91213        18.11813
R17  20303488.88713    512843.91413     -2932.99513        21.07713
E02                    275879.15624     -1700.97624        27.27724                    423514.07112     -1279.25312        15.70412
E30                    -46709.90824       312.76024        26.54424                   -153262.90912       229.71312        15.67512
E36                    287432.25123     -2212.84923        18.86923                                                                
> 2022 11 17 13 16 02.9996521  0 10                      
G08  20507236.23624    173773.92324     -1328.55324        29.36924                                                                
G10  25357781.67313   -162291.08013      1020.98013        20.95113                   -158753.37613       757.63613        20.05213
G16  23741396.97313    487616.34713     -2715.14313        22.74613                                                                
G27  22294073.33413    576706.75413     -2947.52713        23.42813                                                                
G30                   -354142.12412      2613.62512        16.14912                                                                
R15                    236514.07313     -1519.83413        18.67613
R17  20303995.83613    515771.37213     -2927.83013        20.74813
E02                    277580.28024     -1701.12424        27.18224                    424801.00312     -1285.30612        16.29012
E30                    -47022.54224       312.63524        26.98924                   -153499.66112       236.22612        12.65812
E36                    289645.29913     -2213.22513        18.94013                                                                
> 2022 11 17 13 16 03.9996521  0 10                      
G08  20507488.66124    175102.92524     -1329.00224        29.37224                                                                
G10  25357604.19613   -163311.63813      1022.44613        21.65213                   -159515.49213       755.51713        20.01313
G16  23741912.91613    490330.38013     -2716.30013        22.77213                                                                
G27  22294634.24613    579655.28513     -2950.61413        22.88613                                                                
G30                   -356755.84312      2609.58512        16.07412                                                                
R15                    238033.01713     -1523.63313        19.56413
R17                    518702.96013     -2935.43013        19.61813
E02                    279281.73324     -1701.45324        27.28024                    426088.24912     -1289.03212        16.05612
E30                    -47334.80024       312.25824        26.68024                   -153736.08712       241.98812        14.88812
E36                    291858.95423     -2213.65523        18.73223                                                                
> 2022 11 17 13 16 04.9996520  0 10                      
G08  20507709.60824    176432.38924     -1329.46424        29.31224                                                                
G10  25357374.55513   -164331.62013      1021.29113        20.88313                   -160277.17413       762.86213        20.01813
G16  23742403.37624    493044.59924     -2714.21924        23.66024                                                                
G27  22295172.67323    582603.99723     -2948.71323        23.00123                                                                
G30                   -359366.63212      2606.54612        16.55012                                                                
R15                    239553.69013     -1525.46213        18.72113
R17                    521640.74713     -2940.99413        17.94813
E02                    280983.52924     -1701.79724        27.33424                    427375.63112     -1293.81212        14.64612
E30                    -47646.76624       311.96624        26.47524                   -153972.07112       241.82312        15.35812
E36                    294073.08923     -2214.13523        17.51823                                                                
> 2022 11 17 13 16 05.9996520  0 10                      
G08  20507967.43025    177762.30125     -1329.91225        29.57325                                                                
G10  25357177.59113   -165350.81713      1019.44513        20.58513                   -161038.46113       763.86913        19.03913
G16  23742916.02114    495759.23314     -2714.94914        24.00214                                                                
G27  22295731.48623    585552.99823     -2949.00123        23.26523                                                                
G30                   -361972.36513      2607.56913        17.81913                                                                
R15                    241076.04613     -1529.37813        18.66413
R17                    524588.39112     -2942.02812        17.48212
E02                    282685.59324     -1702.06424        27.57624                    428663.16212     -1294.20512        13.64512
E30                    -47958.38324       311.61724        26.66624                   -154207.71312       231.89812        15.08512
E36                    296287.45922     -2214.37022        16.63922                                                                
> 2022 11 17 13 16 06.9996519  0 10                      
G08  20508188.07724    179092.15924     -1329.85824        29.49724                                                                
G10  25356959.64213   -166369.68213      1015.35813        20.70913                   -161799.35213       763.01213        19.78013
G16  23743399.58714    498473.97514     -2714.90414        23.88414                                                                
G27  22296261.22024    588501.52724     -2948.52924        23.55724                                                                
G30                   -364576.51213      2607.26913        18.93113                                                                
R15                    242604.41913     -1526.65713        17.92113
R17                    527533.19912     -2934.80412        17.03812
E02                    284387.97024     -1702.37724        27.53324                    429951.06312     -1289.70612        14.45912
E30                    -48269.71024       311.32724        26.44224                   -154443.03812       229.58112        15.47512
E36                    298502.43522     -2214.97722        16.87722                                                                
> 2022 11 17 13 16 07.9996519  0 10                      
G08  20508441.10224    180422.89224     -1330.73224        29.38324                                                                
G10  25356757.58213   -167388.19313      1015.96513        21.40513                   -162559.74813       759.83213        19.31613
G16  23743926.02214    501188.96814     -2715.15214        23.63014                                                                
G27  22296828.42724    591450.79224     -2949.26424        23.72824                                                                
G30                   -367183.86713      2605.80613        17.88213                                                                
R15                    244136.08413     -1527.91113        17.88013
R17                    530467.37612     -2932.48312        15.96712
E02                    286090.57824     -1702.60824        27.32124                    431239.06712     -1288.55112        14.67312
E30                    -48580.91724       311.20724        26.52524                   -154678.53212       232.12812        14.75512
E36                    300717.76523     -2215.33023        17.69823                                                                
> 2022 11 17 13 16 08.9996518  0 10                      
G08  20508659.95024    181753.76024     -1330.86824        29.24724                                                                
G10  25356543.53013   -168406.38413      1023.61413        21.92113                   -163320.13613       760.58513        19.56813
G16  23744405.39024    503903.81524     -2714.84724        24.69124                                                                
G27  22297361.45814    594400.47914     -2948.57914        23.80814                                                                
G30                   -369793.32213      2606.50613        17.82813                                                                
R15                    245658.22213     -1524.93213        18.76713
R17                    533403.27113     -2938.29713        18.14713
E02                    287793.06124     -1702.48324        27.62024                    432527.01412     -1295.84112        15.60912
E30                    -48891.97824       311.06124        26.37324                   -154913.95012       239.20512        15.84112
E36                    302933.05622     -2215.29122        15.16822                                                                
> 2022 11 17 13 16 09.9996518  0 10                      
G08  20508920.77024    183085.12924     -1331.37024        29.36124                                                                
G10  25356344.76813   -169424.04613      1018.87613        21.94913                   -164079.97413       762.74213        20.15113
G16  23744919.53424    506619.01224     -2715.19724        24.58524                                                                
G27  22297923.26914    597350.04714     -2949.31714        24.23314                                                                
G30                   -372390.75713      2598.70713        17.53313                                                                
R15                    247180.44613     -1526.20613        18.41413
R17                    536345.03412     -2944.87612        16.62212
E02                    289496.01024     -1702.94924        27.06224                    433815.25212     -1293.80312        17.20612
E30                    -49202.72724       310.74924        26.63124                   -155148.97412       241.45912        15.71812
E36                    305148.92323     -2215.86623        18.90223                                                                
> 2022 11 17 13 16 10.9996517  0 10                      
G08  20509141.71725    184416.94025     -1331.81025        29.76325                                                                
G10  25356122.32213   -170440.93313      1013.97713        22.32313                   -164839.45713       760.30113        20.37713
G16  23745414.19224    509334.48624     -2715.47424        24.24224                                                                
G27  22298445.20813    600299.80513     -2949.57813        23.02713                                                                
G30                   -374984.28112      2599.51912        17.27112                                                                
R15                    248706.66013     -1528.52913        18.35113
R17                    539291.92212     -2944.91712        14.32012
E02                    291199.12624     -1703.11624        27.06524                    435103.67212     -1285.95312        16.17812
E30                    -49513.15524       310.42824        26.70324                   -155383.72212       234.65012        15.82812
E36                    307365.19123     -2216.26823        17.71323                                                                
> 2022 11 17 13 16 11.9996517  0 10                      
G08  20509393.84224    185749.36824     -1332.42924        29.41224                                                                
G10  25355935.85113   -171457.25813      1012.09813        22.56613                   -165598.54913       764.19813        20.18613
G16  23745924.73814    512050.37114     -2716.32214        23.99414                                                                
G27  22299011.81513    603249.94513     -2950.86613        23.41513                                                                
G30                   -377589.68413      2602.04913        19.20113                                                                
R15                    250236.08312     -1534.55512        17.39112
R17                    542235.78612     -2939.40012        16.29812
E02                    292902.78624     -1703.66124        27.12824                    436392.14312     -1285.65112        15.37112
E30                    -49823.23424       310.07924        26.74824                   -155618.42412       235.94612        15.98012
E36                    309581.99823     -2216.80823        17.56323                                                                
> 2022 11 17 13 16 12.9996516  0 10                      
G08  20509619.28624    187081.96824     -1332.59924        29.46124                                                                
G10  25355709.80713   -172473.28113      1012.67213        21.76313                   -166357.13913       760.21613        19.87613
G16  23746411.60124    514766.14324     -2715.77224        24.23024                                                                
G27  22299541.24913    606199.94413     -2952.31613        22.68613                                                                
G30                   -380195.00213      2600.69013        19.29313                                                                
R15                    251771.33412     -1539.81012        17.44512
R17                    545168.88012     -2932.78212        17.45712
E02                    294606.42014     -1703.34014        27.27214                    437680.99112     -1282.01812        17.39712
E30                    -50133.14614       310.18214        26.26414                   -155852.87012       239.08812        15.23912
E36                    311798.97423     -2216.97623        18.13523                                                                
> 2022 11 17 13 16 13.9996516  0 10                      
G08  20509873.21025    188414.61725     -1332.64925        29.54125                                                                
G10  25355519.13913   -173489.26413      1015.16113        21.47313                   -167115.69113       754.63213        19.73413
G16  23746935.03914    517481.87514     -2715.85614        23.56514                                                                
G27  22300104.25913    609149.97413     -2949.33513        21.73913                                                                
G30                   -382799.41613      2601.38513        19.48013                                                                
R15                    253312.53313     -1539.04013        17.59813
R17                    548102.16313     -2934.54913        18.82313
E02                    296309.96124     -1703.54024        27.57924                    438969.82612     -1280.89512        16.25812
E30                    -50443.23224       310.08624        26.57724                   -156087.28512       237.91512        14.75812
E36                    314015.85523     -2216.88123        18.00423                                                                
> 2022 11 17 13 16 14.9996515  0 10                      
G08  20510097.75525    189748.08925     -1333.47225        29.96425                                                                
G10  25355299.99113   -174504.22213      1010.58213        21.67613                   -167873.62513       751.69413        19.05213
G16  23747409.61023    520198.22423     -2716.34923        23.39023                                                                
G27  22300629.49513    612099.81813     -2949.31913        21.18313                                                                
G30                   -385402.59013      2602.43413        19.38713                                                                
R15                    254853.56613     -1534.04713        17.62213
R17                    551039.28813     -2945.46213        18.60413
E02                    298014.20524     -1704.24524        27.66824                    440259.04612     -1281.38512        13.33412
E30                    -50752.57324       309.34024        26.37724                   -156321.35612       238.69012        15.06312
E36                    316233.86423     -2218.00923        18.96523                                                                
> 2022 11 17 13 16 15.9996515  0 10                      
G08  20510350.78025    191082.21725     -1334.12825        30.01525                                                                
G10  25355108.12413   -175518.54413      1016.42713        21.50813                   -168631.11513       757.14613        19.35413
G16  23747932.44824    522915.02124     -2716.79724        23.52524                                                                
G27  22301182.91213    615042.38213     -2946.82013        21.76813                                                                
G30                   -388004.30713      2606.48913        18.27713                                                                
R15                    256384.94413     -1530.30713        17.62513
R17  20310975.60413    553988.62813     -2946.39513        20.16613
E02                    299718.88824     -1704.68324        27.29124                    441548.60812     -1284.49212        14.73812
E30                    -51061.45524       308.88224        26.30024                   -156555.03312       235.37412        16.40412
E36                    318452.20223     -2218.33823        18.73523                                                                
> 2022 11 17 13 16 16.9996514  0 10                      
G08  20510577.72325    192416.79925     -1334.58225        29.82425                                                                
G10  25354876.68413   -176532.09313      1013.23913        22.17913                   -169388.09013       754.74713        18.91213
G16  23748421.41023    525631.98023     -2716.95923        23.04923                                                                
G27                    617989.26413     -2950.31513        19.95513                                                                
G30                   -390607.31113      2603.95313        18.23413                                                                
R15                    257912.22313     -1532.93613        17.78613
R17                    556939.83413     -2941.84113        19.27413
E02                    301423.89624     -1705.00824        27.21724                    442838.71612     -1291.21712        15.06712
E30                    -51369.98824       308.53324        26.09324                   -156788.59512       233.25012        16.42912
E36                    320670.99023     -2218.78823        18.26523                                                                
> 2022 11 17 13 16 17.9996514  0 10                      
G08  20510830.44825    193751.18525     -1334.38625        29.81925                                                                
G10  25354681.81913   -177545.98413      1008.85713        21.75013                   -170145.03413       751.23613        19.97913
G16  23748931.05713    528348.70513     -2716.79513        22.72913                                                                
G27                    620943.84613     -2959.53413        19.18213                                                                
G30                   -393209.38213      2599.89013        19.04613                                                                
R15                    259446.43312     -1536.96712        16.83612
R17  20312033.57213    559877.81013     -2937.07513        20.17013
E02                    303128.63624     -1704.73924        27.83124                    444128.21112     -1294.54212        15.17012
E30                    -51678.91614       308.67314        26.30514                   -157022.31412       235.83012        16.59512
E36                    322889.56223     -2218.57223        18.75023                                                                
> 2022 11 17 13 16 18.9996513  0 10                      
G08  20511056.49125    195085.80825     -1334.62325        30.04425                                                                
G10  25354460.27213   -178559.44113      1015.75413        21.45413                   -170901.89713       753.05713        19.35813
G16  23749426.61413    531065.35313     -2718.42913        22.08013                                                                
G27                    623907.58613     -2959.94413        19.46413                                                                
G30                   -395811.24813      2598.60813        19.33513                                                                
R15                    260981.44712     -1537.26412        17.03312
R17                    562805.37313     -2934.40813        19.04813
E02                    304833.29724     -1704.66124        27.68624                    445417.61012     -1293.78412        14.57612
E30                    -51987.70024       308.78424        26.33924                   -157255.83312       238.43912        14.19912
E36                    325108.41523     -2218.85423        18.77723                                                                
> 2022 11 17 13 16 19.9996513  0 10                      
G08  20511310.71525    196421.22025     -1335.41225        30.16325                                                                
G10  25354265.10813   -179571.93813      1010.99513        21.56513                   -171658.01213       758.69513        19.17913
G16  23749935.06213    533782.58513     -2715.69813        22.43213                                                                
G27  22303365.10213    626866.78513     -2950.08113        20.14713                                                                
G30                   -398412.42113      2603.84513        18.85913                                                                
R15                    262517.61212     -1536.08012        15.78912
R17                    565738.62813     -2935.97313        18.68813
E02                    306538.67124     -1705.37424        27.22824                    446707.94912     -1291.85412        12.95312
E30                    -52295.92324       308.22324        26.47424                   -157488.88612       234.25712        16.37612
E36                    327328.03023     -2219.61423        18.61323                                                                
> 2022 11 17 13 16 20.9996512  0 10                      
G08  20511532.56125    197757.16625     -1335.94525        29.92725                                                                
G10  25354045.36013   -180583.91913      1007.74013        22.28013                   -172413.76313       754.97713        18.79013
G16  23750418.92713    536499.51813     -2715.68513        21.98113                                                                
G27  22303908.62513    629818.47513     -2946.05613        20.85413                                                                
G30                   -401012.74113      2599.23413        20.80713                                                                
R15                    264055.87612     -1536.08312        15.48512
R17                    568672.35213     -2941.74813        19.41413
E02                    308244.46424     -1705.79324        27.52924                    447998.11412     -1288.15812        13.21512
E30                    -52603.67824       307.75524        26.64624                   -157721.87912       234.10212        16.42012
E36                    329548.16223     -2220.13223        19.56323                                                                
> 2022 11 17 13 16 21.9996512  0 10                      
G08  20511786.78525    199093.51325     -1336.34725        30.02825                                                                
G10  25353859.78813   -181595.44513      1008.70313        22.49913                   -173168.99113       752.06613        19.05913
G16  23750929.47413    539217.41913     -2717.43613        23.07813                                                                
G27  22304471.03613    632770.39413     -2951.07813        21.87513                                                                
G30                   -403612.81513      2597.24613        21.05013                                                                
R15                    265593.62612     -1533.81212        14.28012
R17                    571611.20213     -2946.11313        19.23213
E02                    309950.36624     -1705.90324        27.51524                    449288.59212     -1283.23312        13.54912
E30                    -52911.25424       307.57624        26.50524                   -157954.41412       228.73712        14.90412
E36                    331768.57013     -2220.56913        19.85113                                                                
> 2022 11 17 13 16 22.9996511  0 10                      
G08  20512012.82925    200430.30425     -1336.79125        30.00125                                                                
G10  25353638.84113   -182606.39013      1012.37213        22.39813                   -173923.96013       749.61213        19.32113
G16  23751424.43113    541935.45313     -2717.44813        23.01613                                                                
G27  22305009.46313    635722.57313     -2956.02813        21.24613                                                                
G30                   -406212.19113      2595.45913        20.55613                                                                
R15                    267132.93112     -1530.42012        15.07612
R17                    574550.15113     -2943.62113        19.10513
E02                    311656.62124     -1706.25524        27.64624                    450579.46712     -1288.12012        15.08412
E30                    -53218.38624       307.13224        26.92424                   -158186.93212       225.49112        15.73012
E36                    333989.46323     -2220.89223        21.41323                                                                
> 2022 11 17 13 16 23.9996510  0 10                      
G08  20512237.07425    201767.62225     -1337.31825        29.79825                                                                
G10  25353411.59813   -183616.62913      1011.87913        21.95513                   -174678.40413       753.87613        19.28813
G16  23751917.29013    544653.90013     -2720.75713        22.68713                                                                
G27  22305534.10013    638675.03313     -2951.16913        21.40413                                                                
G30                   -408811.23713      2597.74013        18.89313                                                                
R15                    268662.16312     -1525.11212        13.28912
R17                    577486.91913     -2941.32113        18.40813
E02                    313363.22124     -1706.60124        27.42724                    451870.49512     -1291.34512        14.60912
E30                    -53525.28014       306.81214        26.38914                   -158418.88912       229.12812        16.61012
E36                    336210.82623     -2221.36423        20.72923                                                                
> 2022 11 17 13 16 24.9996510  0 10                      
G08  20512490.39815    203105.39515     -1337.88415        29.82815                                                                
G10  25353212.53613   -184626.26713      1005.97213        22.52913                   -175432.41713       754.40613        20.17313
G16  23752435.93113    547372.47713     -2721.16613        21.99213                                                                
G27  22306081.82113    641627.64013     -2949.12113        21.96013                                                                
G30                   -411409.65213      2596.83313        20.47013                                                                
R15                    270194.53311     -1525.38511        12.42911
R17  20315781.57713    580421.67613     -2941.19413        20.50913
E02                    315070.15424     -1706.93224        28.01724                    453161.74312     -1287.38212        14.47812
E30                    -53831.79524       306.51524        26.94624                   -158650.97712       234.38712        16.82512
E36                    338432.65413     -2222.02213        20.90013                                                                
> 2022 11 17 13 16 25.9996509  0 10                      
G08  20512712.24525    204443.52125     -1338.12625        29.97425                                                                
G10  25352985.89313   -185635.66613      1005.96813        22.02113                   -176186.07313       752.62313        19.45213
G16  23752920.99513    550091.25513     -2716.22413        22.04513                                                                
G27  22306624.14513    644580.58013     -2955.63513        20.50713                                                                
G30                   -414007.57313      2598.10613        20.52113                                                                
R15                    271740.67011     -1546.24711        11.91511
R17                    583355.87313     -2940.41013        19.88813
E02                    316777.26824     -1707.11424        27.45824                    454453.15812     -1282.76612        13.63012
E30                    -54138.08324       306.28724        26.18324                   -158882.59712       236.54512        15.75112
E36                    340654.68823     -2222.03423        19.26823                                                                
> 2022 11 17 13 16 26.9996509  0 10                      
G08  20512966.76925    205782.21425     -1338.69325        29.65325                                                                
G10  25352803.02013   -186644.32513      1010.99913        21.54613                   -176939.25513       756.11813        20.15413
G16  23753435.13913    552810.39713     -2716.76913        22.53413                                                                
G27                    647534.50013     -2951.38813        19.58613                                                                
G30                   -416605.18513      2599.34813        18.98513                                                                
R15                    273293.87211     -1547.98011        12.33211
R17  20316814.36213    586295.39913     -2943.87813        21.39913
E02                    318484.76924     -1707.50224        27.41424                    455753.82112     -1288.19512        14.47912
E30                    -54444.13524       306.05324        26.19724                   -159114.93512       234.07712        13.56912
E36                    342877.43723     -2222.74823        20.16223                                                                
> 2022 11 17 13 16 27.9996508  0 10                      
G08  20513195.81024    207121.18824     -1338.97324        29.46524                                                                
G10  25352575.47713   -187652.54113      1009.78013        22.19613                   -177692.19713       757.15113        19.72813
G16  23753923.50113    555529.60113     -2719.36313        22.65913                                                                
G27                    650487.36113     -2953.54213        19.33813                                                                
G30                   -419202.20713      2595.72413        19.77313                                                                
R15                    274840.90312     -1539.83612        12.54412
R17  20317324.00913    589235.03913     -2948.79813        21.13113
E02                    320192.42724     -1707.65724        27.38324                    457038.01212     -1289.35012        16.28112
E30                    -54749.85524       305.72024        26.22824                   -159351.58212       227.54612        13.26012
E36                    345100.36423     -2222.92723        18.88223                                                                
> 2022 11 17 13 16 28.9996508  0 10                      
G08  20513447.93624    208460.71924     -1339.53124        29.35624                                                                
G10  25352383.91013   -188660.12613      1004.18713        22.05413                   -178444.69213       749.98713        19.53813
G16  23754444.84013    558249.14913     -2719.87313        23.25113                                                                
G27  22308287.69413    653440.83613     -2950.21413        20.84313                                                                
G30                   -421798.71813      2597.77713        20.78713                                                                
R15                    276376.44312     -1539.01012        13.02012
R17  20317897.51213    592185.63713     -2949.40813        21.40913
E02                    321900.41124     -1707.98424        27.48224                    458326.65412     -1285.28412        16.91812
E30                    -55055.21124       305.35624        26.74224                   -159594.84312       224.32312        15.53112
E36                    347323.77623     -2223.41223        17.55123                                                                
> 2022 11 17 13 16 29.9996507  0 10                      
G08  20513672.48025    209800.40325     -1339.68425        29.59725                                                                
G10  25352182.74913   -189667.61213      1005.19013        22.48813                   -179196.88413       749.23113        20.09113
G16  23754936.20013    560968.64213     -2720.15113        22.58613                                                                
G27  22308819.22613    656394.38213     -2958.66113        22.73813                                                                
G30                   -424394.85813      2596.01913        19.81113                                                                
R15                    277913.84612     -1545.17912        13.08212
R17  20318447.33213    595134.12613     -2949.56113        21.89213
E02                    323608.48524     -1708.07424        27.45124                    459611.46912     -1290.61012        15.81412
E30                    -55360.54724       305.33624        26.73924                   -159839.08512       226.93012        16.06712
E36                    349547.37123     -2223.59523        18.36623                                                                
> 2022 11 17 13 16 30.9996507  0 10                      
G08  20513929.70224    211140.50124     -1340.09824        29.49024                                                                
G10  25351980.08913   -190674.37713      1007.73613        22.71713                   -179948.72113       749.34213        19.73613
G16  23755446.74613    563688.51213     -2719.84113        22.76113                                                                
G27  22309382.53623    659348.20723     -2953.82523        23.36323                                                                
G30                   -426990.43613      2593.33513        19.97913                                                                
R15                    279456.86612     -1549.52412        13.66612
R17  20318977.06513    598079.79113     -2946.38313        21.89413
E02                    325316.80124     -1708.31624        27.29224                    460898.22212     -1287.63412        16.90312
E30                    -55665.54424       304.99724        26.59124                   -160064.50312       229.14212        14.76812
E36                    351771.32823     -2223.95723        19.30923                                                                
> 2022 11 17 13 16 31.9996506  0 10                      
G08  20514153.04725    212481.18625     -1340.68425        29.55825                                                                
G10  25351753.44613   -191680.69913      1011.01013        22.97613                   -180700.10513       752.99513        19.49913
G16  23755930.61123    566408.49123     -2719.97923        23.45723                                                                
G27  22309910.47024    662302.13624     -2953.92924        23.90424                                                                
G30                   -429585.52813      2597.44513        20.09213                                                                
R15                    281001.04912     -1537.90412        13.72412
R17  20319479.51713    601029.35513     -2945.95413        22.39913
E02                    327025.55414     -1709.02514        27.34214                    462182.46512     -1290.01512        15.88512
E30                    -55970.24014       304.86114        26.36514                   -160294.36412       226.57412        15.20212
E36                    353995.89823     -2224.57023        19.77523                                                                
> 2022 11 17 13 16 32.9996506  0 10                      
G08  20514410.86924    213822.34924     -1341.16324        29.39624                                                                
G10  25351559.78013   -192686.21713      1006.34713        22.48713                   -181451.12213       751.83113        20.27913
G16  23756451.35113    569128.94413     -2720.83713        23.04013                                                                
G27  22310474.38024    665256.43224     -2954.29624        25.01124                                                                
G30                   -432180.10713      2596.82113        18.79013                                                                
R15                    282546.20712     -1541.56812        13.15612
R17  20320056.31813    603973.30613     -2950.72213        22.99613
E02                    328734.46424     -1708.91124        27.64224                    463471.99612     -1288.64312        15.71512
E30                    -56274.60124       304.36124        26.41224                   -160532.83312       231.32512        15.57812
E36                    356220.78223     -2224.88423        20.27823                                                                
> 2022 11 17 13 16 33.9996505  0 10                      
G08  20514633.61524    215163.84124     -1341.49224        29.21624                                                                
G10  25351344.82923   -193691.33923      1005.12123        23.37023                   -182201.74613       750.96813        20.23713
G16  23756939.41323    571849.51223     -2720.56823        23.02023                                                                
G27  22311009.21024    668210.88524     -2954.45424        24.59824                                                                
G30                   -434774.25513      2593.98913        19.08713                                                                
R15                    284091.94212     -1536.11812        12.62412
R17  20320586.05113    606923.58613     -2953.13013        22.51513
E02                    330443.77024     -1709.30624        27.34324                    464757.92112     -1301.69812        14.42512
E30                    -56578.66724       304.06724        26.62124                   -160780.92712       229.36212        14.06212
E36                    358445.99923     -2225.21623        20.39223                                                                
> 2022 11 17 13 16 34.9996505  0 10                      
G08  20514888.43825    216505.92125     -1342.08025        29.61325                                                                
G10  25351149.96424   -194695.94424      1004.60624        23.79024                   -182951.87513       747.74313        20.52213
G16  23757457.15513    574570.33313     -2715.92313        22.54013                                                                
G27  22311565.32514    671165.69714     -2955.68814        23.75914                                                                
G30                   -437367.71613      2589.91013        18.99013                                                                
R15                    285631.11612     -1544.56212        12.50212
R17  20321113.68613    609874.45513     -2948.40913        23.49713
E02                    332153.27414     -1709.52014        27.56014                    466053.16212     -1297.81612        15.05212
E30                    -56882.40824       303.74124        26.48124                   -161014.17612       232.33112        15.86112
E36                    360671.76513     -2225.92913        21.32713                                                                
> 2022 11 17 13 16 35.9996504  0 10                      
G08  20515112.08325    217848.45225     -1342.53125        29.72225                                                                
G10  25350937.41113   -195699.74013      1004.82313        22.87313                   -183665.09713       751.14013        20.26313
G16  23757954.81013    577291.41413     -2720.91913        22.71513                                                                
G27  22312093.85913    674120.75913     -2955.06213        22.90613                                                                
G30                   -439960.69413      2591.72013        19.50313                                                                
R15                    287179.36712     -1539.78712        13.33112
R17  20321645.81713    612826.00913     -2955.39913        22.72313
E02                    333863.20724     -1709.93324        27.67124                    467338.02812     -1298.24112        15.33612
E30                    -57185.82024       303.41224        25.84124                   -161236.45812       232.88412        15.80412
E36                    362898.06423     -2226.29923        18.88123                                                                
> 2022 11 17 13 16 36.9996504  0 10                      
G08  20515369.00625    219191.38325     -1342.93125        29.69225                                                                
G10  25350740.74713   -196703.29513      1005.03613        22.74913                   -184413.70613       746.34813        20.83013
G16  23758469.55413    580012.77313     -2720.46013        22.83613                                                                
G27  22312665.86313    677076.10913     -2956.08013        23.27913                                                                
G30                   -442553.17313      2599.24213        19.20713                                                                
R15                    288720.54912     -1545.88712        13.15012
R17  20322201.63313    615778.31813     -2957.43113        22.76213
E02                    335573.41624     -1710.20924        28.00124                    468624.40712     -1289.61212        15.64312
E30                    -57488.95724       303.13724        26.46924                   -161450.22712       234.88112        15.63012
E36                    365124.59613     -2226.67113        20.81413                                                                
> 2022 11 17 13 16 37.9996503  0 10                      
G08  20515596.24824    220534.18324     -1342.80024        29.45124                                                                
G10  25350514.70423   -197706.74423      1003.45023        23.34923                   -185163.25113       749.84213        20.20913
G16  23758953.11914    582733.84014     -2720.61114        23.75014                                                                
G27  22313200.99223    680030.76023     -2954.65123        23.26923                                                                
G30                   -445145.99313      2594.16613        19.08213                                                                
R15                    290260.52812     -1550.47512        13.04712
R17  20322715.47713    618730.45013     -2959.12213        21.79013
E02                    337283.34124     -1709.92624        27.49224                    469908.95312     -1289.94012        15.80112
E30                    -57792.35024       303.39324        26.13724                   -161687.33712       228.07112        16.19112
E36                    367351.20613     -2222.51813        20.70913                                                                
> 2022 11 17 13 16 38.9996503  0 10                      
G08  20515849.87324    221876.78824     -1342.60524        29.36224                                                                
G10  25350327.93324   -198710.36724      1003.62324        24.17724                   -185912.73513       751.97213        20.85813
G16  23759471.46013    585454.41913     -2720.47413        22.91013                                                                
G27  22313758.00724    682985.30424     -2954.54424        23.96424                                                                
G30                   -447738.94213      2585.86913        20.06813                                                                
R15                    291812.61811     -1545.67211        12.20711
R17  20323232.01913    621681.66613     -2955.03713        20.08513
E02                    338992.81324     -1709.47224        27.61924                    471198.50312     -1289.49612        16.31512
E30                    -58096.05714       303.48614        26.09114                   -161927.65812       227.89612        16.66612
E36                    369576.89013     -2225.43413        19.79113                                                                
> 2022 11 17 13 16 39.9996502  0 10                      
G08  20516077.11525    223219.91125     -1343.12225        29.57925                                                                
G10  25350099.19213   -199713.28013       997.17213        22.73413                   -186661.76113       751.59813        20.59113
G16  23759958.02313    588175.40613     -2721.42013        22.50813                                                                
G27  22314295.23514    685939.93214     -2954.75214        23.69314                                                                
G30                   -450331.01213      2583.92513        19.62513                                                                
R15                    293357.30011     -1547.80411        11.75611
R17  20323759.35413    624633.15413     -2952.96613        20.91713
E02                    340702.62414     -1709.64714        27.36714                    472483.37412     -1288.41612        13.69612
E30                    -58399.48324       303.42624        26.45324                   -162170.68512       221.23412        15.99312
E36                    371801.90913     -2224.79213        18.01413                                                                
> 2022 11 17 13 16 40.9996502  0 10                      
G08  20516334.03725    224563.60725     -1343.69625        29.51525                                                                
G10  25349925.61213   -200715.65713       999.86813        21.57613                   -187410.18113       746.83913        21.48013
G16  23760476.06513    590896.74813     -2722.23413        22.87313                                                                
G27  22314857.94513    688895.16113     -2955.80113        23.33613                                                                
G30                   -452922.23813      2592.45313        20.30213                                                                
R15                    294908.55511     -1555.64311        11.05011
R17  20324323.56413    627586.80013     -2952.26113        21.35913
E02                    342412.97424     -1710.34924        27.60624                    473768.98112     -1285.57812        12.61112
E30                    -58702.38324       302.90024        26.06524                   -162416.38412       227.68012        15.18412
E36                    374026.89413     -2226.73413        19.10013                                                                
> 2022 11 17 13 16 41.9996500  0 10                      
G08  20516557.98224    225907.80124     -1344.19424        29.36924                                                                
G10  25349690.57413   -201717.45313      1001.41113        22.48413                   -188158.15613       747.78613        21.95313
G16  23760978.21713    593618.29913     -2722.22613        22.68013                                                                
G27  22315386.77914    691850.45414     -2955.37714        24.54914                                                                
G30                   -455521.05513      2592.86813        20.52213                                                                
R15                    296465.56011     -1543.82811        10.83711
R17  20324897.96613    630545.93813     -2958.40113        21.07813
E02                    344123.62024     -1710.64724        27.44324                    475051.47912     -1286.54312        14.42112
E30                    -59005.05024       302.66724        26.30224                   -162660.71312       231.82412        15.82212
E36                    376252.14313     -2229.43013        19.61113                                                                
> 2022 11 17 13 16 42.9996500  0 10                      
G08  20516815.20424    227252.39324     -1344.59124        29.27224                                                                
G10  25349505.00314   -202718.63914      1000.82714        23.66714                   -188905.92613       747.81113        22.33613
G16  23761498.95713    596340.28013     -2726.69013        22.51713                                                                
G27  22315947.69114    694806.01414     -2955.44414        25.81914                                                                
G30                   -458115.24813      2590.70513        19.43213                                                                
R15                    297997.64211     -1529.18811        10.20911
R17  20325427.39913    633501.84713     -2958.02413        20.13813
E02                    345834.43924     -1710.81924        27.77224                    476340.54512     -1294.09112        16.40612
E30                    -59307.30914       302.00414        25.99114                   -162903.89112       229.63612        16.58312
E36                    378477.72013     -2231.82513        18.74013                                                                
> 2022 11 17 13 16 43.9996500  0 10                      
G08  20517038.85024    228597.20824     -1344.81524        29.42424                                                                
G10  25349279.25913   -203719.52613      1000.55413        23.07813                   -189653.39223       747.46623        21.93423
G16  23761978.92413    599061.95413     -2718.56613        22.28313                                                                
G27  22316483.42024    697761.59524     -2955.58224        25.29924                                                                
G30                   -460705.65313      2589.96313        19.36913                                                                
R15                    299520.37011     -1525.95811         9.81011
R17  20325924.75513    636462.02013     -2956.18313        21.16513
E02                    347545.47724     -1711.03824        27.68824                    477625.16612     -1299.95912        13.63012
E30                    -59609.58424       302.27524        26.02624                   -163147.85412       228.16912        16.92612
E36                    380703.82113     -2233.41813        18.17613                                                                
> 2022 11 17 13 16 44.9996500  0 10                      
G08  20517294.57324    229942.26924     -1345.06124        29.32624                                                                
G10  25349085.59313   -204720.16313      1000.70513        21.42413                   -190400.49423       747.10223        21.83023
G16  23762486.77313    601783.71013     -2715.71813        22.64713                                                                
G27  22317046.43024    700717.30924     -2955.71324        25.02124                                                                
G30                   -463295.34713      2586.97613        19.82013                                                                
R15                    301043.32911     -1530.26811         9.22611
R17                    639423.62113     -2952.24613        19.77413
E02                    349256.47024     -1710.99324        27.61824                    478915.38412     -1293.49212        15.03012
E30                    -59911.72724       302.14324        26.20924                   -163392.44912       230.21012        16.39512
E36                    382930.52113     -2234.20613        17.97313                                                                
> 2022 11 17 13 16 45.9996499  0 10                      
G08  20517519.11724    231288.11124     -1345.84224        29.33324                                                                
G10  25348859.84913   -205719.69013       999.93913        20.62613                   -191146.94223       746.44723        22.30623
G16  23762986.52713    604506.39613     -2724.45713        21.86713                                                                
G27  22317580.06124    703673.38724     -2956.07824        24.51424                                                                
G30                   -465881.14213      2588.15913        19.20613                                                                
R15                    302575.93411     -1536.05611         8.36611
R17                    642377.34113     -2954.80013        19.64213
E02                    350968.06724     -1711.59824        28.01724                    480189.86712     -1306.63812        12.96912
E30                    -60213.22924       301.50324        26.19324                   -163637.66812       230.67412        15.98012
E36                    385158.97113     -2233.60013        18.45213                                                                
> 2022 11 17 13 16 46.9996499  0 10                      
G08  20517774.84024    232634.51824     -1346.40724        29.11524                                                                
G10  25348678.47513   -206718.84913      1000.27713        20.63313                   -191893.00023       746.05923        21.75323
G16  23763494.37513    607229.31113     -2727.83213        22.11713                                                                
G27  22318137.07524    706630.00424     -2956.61724        24.38524                                                                
G30                   -468464.81613      2589.07713        19.82413                                                                
R15                    304120.75811     -1542.75111         8.39211
R17                    645325.92613     -2957.38213        19.64113
E02                    352680.17124     -1712.10424        27.73324                    481483.92312     -1290.42312        13.69612
E30                    -60514.30024       301.07124        26.67824                   -163884.25612       231.18412        17.46412
E36                    387389.10013     -2232.82113        17.87613                                                                
> 2022 11 17 13 16 47.9996498  0 10                      
G08  20518005.38024    233981.68924     -1347.17124        29.38824                                                                
G10  25348459.62713   -207717.02713      1001.75413        21.48813                   -192638.38313       744.84513        22.07413
G16  23763987.53413    609952.65113     -2723.62413        21.75813                                                                
G27  22318671.60524    709587.06324     -2957.05924        24.51624                                                                
G30                   -471048.97213      2587.38313        19.11113                                                                
R15                    305674.86311     -1560.39611         9.63211
R17                    648284.05913     -2953.71613        19.24913
E02                    354392.88424     -1712.71324        27.73724                    482776.27411     -1302.00511        10.91911
E30                    -60814.72924       300.42924        26.15624                   -164128.91712       226.01012        16.66812
E36                    389619.29212     -2231.72312        17.31512                                                                
> 2022 11 17 13 16 48.9996497  0 10                      
G08  20518230.52524    235329.85524     -1348.16624        29.40324                                                                
G10  25348243.17613   -208714.06013       999.19713        21.74313                   -193382.83813       744.03913        21.74813
G16  23764475.29613    612676.75413     -2722.16613        21.09113                                                                
G27  22319208.53324    712544.95424     -2957.89124        24.84824                                                                
G30                   -473634.31613      2587.10213        18.97113                                                                
R15                    307239.85911     -1581.61111         8.77211
R17                    651243.62613     -2955.14813        19.83613
E02                    356106.39724     -1713.51424        27.70224                    484062.44212     -1296.52312        13.83912
E30                    -61114.34824       299.61824        26.17624                   -164350.48612       220.19212        17.19312
E36                    391851.26212     -2229.91812        16.22012                                                                
> 2022 11 17 13 16 49.9996497  0 10                      
G08  20518489.84524    236678.27124     -1348.41624        29.28024                                                                
G10  25348057.90513   -209710.82313       995.29513        22.23813                   -194127.22813       744.13013        21.89713
G16  23764994.83613    615401.20613     -2725.54713        20.99113                                                                
G27  22319773.64224    715502.77624     -2957.82224        25.03324                                                                
G30                   -476221.05513      2580.37113        19.61313                                                                
R15                    308830.51011     -1597.69711         7.91211
R17                    654203.41013     -2956.67813        19.63113
E02                    357820.03224     -1713.63424        27.49724                    485344.08812     -1296.40712        13.69712
E30                    -61413.90724       299.56024        26.51124                   -164565.17712       216.23212        15.13412
E36                    394082.56112     -2227.67112        16.28612                                                                
> 2022 11 17 13 16 50.9996496  0 10                      
G08  20518715.58924    238027.01724     -1348.74624        29.25324                                                                
G10  25347838.45713   -210707.00613       995.94613        22.06813                   -194871.14013       743.63813        21.04613
G16  23765475.70413    618125.63313     -2726.54213        21.16713                                                                
G27  22320306.97314    718460.88814     -2958.29814        23.96514                                                                
G30                   -478804.34613      2575.12113        18.87613                                                                
R15                    310440.79811     -1615.98711         7.05211
R17                    657161.43013     -2960.88613        19.02913
E02                    359533.77424     -1713.74324        27.68024                    486637.41012     -1291.62012        13.66612
E30                    -61713.09824       299.19024        26.47224                   -164771.55212       217.40312        14.76112
E36                    396314.69212     -2226.22712        17.35612                                                                
> 2022 11 17 13 16 51.9996496  0 10                      
G08  20518968.01425    239376.10225     -1349.08525        29.65625                                                                
G10  25347644.19113   -211702.78313       995.86213        21.51713                   -195614.91213       744.09513        20.35013
G16                    620847.82513     -2725.70413        19.89213                                                                
G27  22320871.78214    721418.89014     -2958.30314        23.97014                                                                
G30                   -481376.87313      2580.62813        19.26513                                                                
R15                    312070.68411     -1634.27011         7.00011
R17                    660121.11813     -2961.17713        19.18513
E02                    361247.77124     -1713.99724        27.54824                    487918.52812     -1295.32612        14.10812
E30                    -62012.34124       299.24324        26.31724                   -164975.39212       222.27612        14.76012
E36                    398547.07922     -2232.38622        17.47722                                                                
> 2022 11 17 13 16 52.9996494  0 10                      
G08  20519196.45625    240725.47325     -1349.37125        29.58725                                                                
G10  25347428.64013   -212698.18513       992.35813        20.64613                   -196358.24423       743.33123        20.90223
G16  23766475.21213    623570.77413     -2725.91813        20.17913                                                                
G27  22321404.21314    724377.16814     -2958.50014        24.10214                                                                
G30                   -483962.57413      2588.36013        19.50713                                                                
R15                    313720.17911     -1652.56011         7.00011
R17                    663087.31213     -2960.34313        19.28013
E02                    362961.92324     -1714.15224        27.53824                    489207.00112     -1289.22612        13.11612
E30                    -62311.21424       298.87324        26.41324                   -165196.45512       225.30112        16.17312
E36                    400779.68523     -2232.60723        17.75523                                                                
> 2022 11 17 13 16 53.9996495  0 10                      
G08  20519449.48124    242075.20624     -1349.73324        29.22724                                                                
G10  25347234.37513   -213693.19013       995.74513        20.39913                   -197101.27623       743.03223        21.31623
G16  23767001.94713    626295.45813     -2725.99613        20.22313                                                                
G27  22321964.52623    727335.63823     -2958.46923        23.22823                                                                
G30                   -486557.41813      2589.77013        19.19113                                                                
R15                    315389.30211     -1670.85411         7.00011
R17                    666051.98013     -2959.53113        18.59813
E02                    364676.24324     -1714.32024        27.41124                    490494.42512     -1301.67712        13.13712
E30                    -62609.93024       298.71624        26.31724                   -165418.30112       227.37512        16.56312
E36                    403012.56022     -2232.87422        16.71022                                                                
> 2022 11 17 13 16 54.9996494  0 10                      
G08  20519677.92324    243425.61224     -1350.40724        29.33624                                                                
G10  25347022.42213   -214687.38613       993.14613        20.49813                   -197843.64613       742.58213        21.09913
G16                    629020.80913     -2726.72213        19.99313                                                                
G27  22322494.55923    730294.33723     -2958.69923        23.07523                                                                
G30                   -489149.21913      2586.27313        18.66913                                                                
R15                    317077.71011     -1667.20511         7.00011
R17                    669013.16213     -2955.31613        18.47713
E02                    366391.04024     -1714.79724        27.59624                    491777.19312     -1285.84812        15.16112
E30                    -62908.16724       298.23824        26.56024                   -165644.36512       227.60012        16.63612
E36                    405246.27512     -2228.35412        16.20312                                                                
> 2022 11 17 13 16 55.9996494  0 10                      
G08  20519939.94124    244776.40924     -1350.79724        29.23224                                                                
G10  25346825.75813   -215681.02013       987.08813        22.01213                   -198585.69513       741.49913        21.24713
G16                    631746.27313     -2727.48313        18.69313                                                                
G27  22323051.57324    733253.33824     -2959.00124        23.55224                                                                
G30                   -491734.28713      2580.06313        18.86913                                                                
R15                    318784.06411     -1685.48711         7.00011
R17                    671974.02612     -2959.04612        17.13812
E02                    368106.09124     -1715.05124        27.09424                    493063.50712     -1297.75812        15.45512
E30                    -63206.19324       298.02624        26.47124                   -165869.77312       231.27212        15.60412
E36                    407480.13623     -2233.86123        18.06423                                                                
> 2022 11 17 13 16 56.9996493  0 10                      
G08  20520164.48624    246127.74324     -1351.33324        29.29524                                                                
G10  25346613.50513   -216674.15413       989.34913        22.13913                   -199327.23723       741.54223        20.78023
G16                    634471.99913     -2724.11213        19.28313                                                                
G27  22323587.90224    736212.61024     -2959.27324        23.50424                                                                
G30                   -494317.49613      2580.16213        18.57413                                                                
R15                    320501.23811     -1728.61311         7.20311
R17                    674934.94012     -2956.26212        16.46012
E02                    369821.53524     -1715.44324        27.17924                    494353.10912     -1295.01712        14.74712
E30                    -63503.68224       297.48924        25.45324                   -166091.50912       232.71912        15.74612
E36                    409714.58423     -2234.44823        18.65423                                                                
> 2022 11 17 13 16 57.9996493  0 10                      
G08  20520416.91124    247479.58124     -1351.83824        29.19224                                                                
G10  25346419.23913   -217666.61113       994.83313        21.74813                   -200068.46213       741.61313        20.62913
G16                    637198.08713     -2725.26913        19.08413                                                                
G27  22324147.91413    739172.30313     -2957.86313        21.91513                                                                
G30                   -496904.47113      2579.90913        19.19013                                                                
R15                    322236.09111     -1724.51911         7.11011
R17                    677896.77712     -2962.98212        17.47812
E02                    371537.38724     -1715.85224        27.01624                    495639.54612     -1299.09012        14.47712
E30                    -63800.93524       297.25324        26.18024                   -166308.92312       233.65112        15.96812
E36                    411949.56622     -2234.98222        17.22222                                                                
> 2022 11 17 13 16 58.9996492  0 9                      
G08  20520646.85224    248831.97324     -1352.39224        29.33724                                                                
G10  25346213.88113   -218658.44113       990.82313        21.67013                   -200809.02023       740.55823        20.41023
G16                    639924.62613     -2725.58813        19.89413                                                                
G27  22324680.94513    742132.10813     -2961.13813        20.95613                                                                
G30                   -499492.33113      2586.51813        18.30713                                                                
R17                    680854.67712     -2963.63912        16.44812
E02                    373253.55724     -1716.17024        27.19124                    496928.20112     -1297.41112        13.98012
E30                    -64097.69424       296.75924        26.23124                   -166522.36612       230.66512        14.74312
E36                    414185.00922     -2235.44322        17.30922                                                                
> 2022 11 17 13 16 59.9996492  0 9                      
G08  20520903.77414    250185.33014     -1353.14814        29.09714                                                                
G10  25346014.21913   -219649.72213       993.39213        20.97313                   -201549.23023       740.21023        20.36623
G16                    642651.31413     -2727.33213        19.68713                                                                
G27  22325252.94913    745092.33413     -2958.10013        21.56113                                                                
G30                   -502079.87713      2581.83313        19.08113                                                                
R17                    683817.97712     -2964.92812        17.14812
E02                    374970.00024     -1716.44324        26.91224                    498212.92512     -1302.27512        13.42512
E30                    -64394.21124       296.51724        26.72624                   -166730.03912       225.79412        16.99412
E36                    416420.81522     -2235.80522        16.36822                                                                
> 2022 11 17 13 17 00.9996491  0 9                      
G08  20521133.11524    251538.07324     -1352.74324        28.99124                                                                
G10  25345789.97513   -220640.26113       988.01613        21.22313                   -202289.16813       740.48913        20.64513
G16  23770520.31113    645378.37113     -2730.15513        21.06013                                                                
G27  22325790.17713    748052.77713     -2959.48213        21.43813                                                                
G30                   -504666.49613      2578.84113        20.06813                                                                
R17                    686780.44312     -2968.01812        16.11212
E02                    376686.79024     -1716.79024        27.27424                    499507.09212     -1298.83912        13.32112
E30                    -64690.31424       296.10324        26.63424                   -166947.15612       229.80612        14.95712
E36                    418657.11722     -2236.30222        16.99822                                                                
> 2022 11 17 13 17 01.9996491  0 9                      
G08  20521388.83825    252892.08925     -1354.01625        29.59725                                                                
G10  25345597.50813   -221630.35013       988.13113        22.26313                   -203028.26313       738.24113        20.74213
G16  23771044.04913    648105.92413     -2732.67313        21.27413                                                                
G27  22326345.09313    751013.64213     -2962.70413        22.37613                                                                
G30                   -507246.35713      2576.13413        19.31613                                                                
R17                    689740.98813     -2965.04813        17.93313
E02                    378404.18624     -1717.39624        27.41024                    500791.74912     -1302.43012        14.21212
E30                    -64985.96024       295.64624        26.75524                   -167174.45912       226.50912        14.75712
E36                    420894.10623     -2236.98923        17.90323                                                                
> 2022 11 17 13 17 02.9996489  0 9                      
G08  20521622.07725    254246.58325     -1354.49525        29.84225                                                                
G10  25345383.75613   -222619.74213       988.70313        22.45413                   -203766.95713       737.21713        19.85213
G16  23771534.50913    650833.74013     -2728.97613        21.13713                                                                
G27  22326883.22013    753974.77313     -2962.22013        22.94113                                                                
G30                   -509826.07013      2582.96213        18.31513                                                                
R17                    692708.90913     -2968.77513        19.35013
E02                    380121.83924     -1717.65324        27.46724                    502083.13812     -1295.17212        15.02612
E30                    -65281.23724       295.27724        26.07024                   -167405.60812       223.83012        16.76312
E36                    423131.58222     -2237.47722        16.36322                                                                
> 2022 11 17 13 17 03.9996490  0 9                      
G08  20521878.39925    255601.45325     -1354.87025        29.65025                                                                
G10  25345197.58513   -223608.60013       988.60413        22.24413                   -204505.51313       738.20713        21.15013
G16  23772037.56113    653561.66913     -2726.18713        20.71013                                                                
G27  22327440.83413    756936.16213     -2960.23813        22.94713                                                                
G30                   -512404.69113      2580.90913        18.65113                                                                
R17                    695685.46013     -2971.90913        18.00413
E02                    381839.71714     -1717.92314        27.37814                    503369.61212     -1302.23712        16.02112
E30                    -65576.14724       294.91024        25.68324                   -167643.05512       223.13612        16.26912
E36                    425369.42923     -2237.84623        17.86323                                                                
> 2022 11 17 13 17 04.9996489  0 9                      
G08  20522101.74524    256956.85524     -1355.40124        29.47924                                                                
G10  25344977.53713   -224596.72313       987.94613        22.25013                   -205243.35213       736.57013        20.84213
G16  23772531.61913    656289.90013     -2726.94113        21.22113                                                                
G27  22327978.66214    759897.84614     -2962.41914        23.63014                                                                
G30                   -514982.82513      2578.41813        18.20913                                                                
R17                    698657.07413     -2969.24513        19.25013
E02                    383557.92524     -1718.20924        27.20124                    504655.84312     -1289.38112        17.29012
E30                    -65870.90724       294.76124        26.39924                   -167885.59712       221.42612        15.58212
E36                    427607.46523     -2238.03723        17.90323                                                                
> 2022 11 17 13 17 05.9996489  0 9                      
G08  20522364.66324    258312.60624     -1355.75124        29.43624                                                                
G10  25344788.36813   -225584.51413       987.71213        21.68813                   -205981.04613       737.67713        20.96913
G16  23773040.36713    659018.32813     -2727.42113        20.89113                                                                
G27  22328534.17713    762859.60913     -2962.35713        23.25413                                                                
G30                   -517559.76812      2578.03512        17.29312                                                                
R17                    701630.36713     -2966.23313        19.71613
E02                    385276.47624     -1718.55024        27.12024                    505940.28912     -1296.27212        14.52612
E30                    -66165.19824       294.29124        26.37224                   -168130.55912       222.59712        15.83512
E36                    429846.24923     -2238.78323        19.53323                                                                
> 2022 11 17 13 17 06.9996488  0 9                      
G08  20522591.30624    259668.84024     -1356.23424        29.47624                                                                
G10  25344580.31213   -226571.57913       986.41013        23.07613                   -206718.25013       737.32513        20.69713
G16  23773532.92613    661747.09313     -2728.39513        21.72913                                                                
G27  22329075.30313    765821.58813     -2962.86813        22.23213                                                                
G30                   -520139.53513      2573.57613        17.64313                                                                
R17                    704608.76513     -2973.50013        19.02313
E02                    386995.27324     -1718.79724        26.91124                    507223.60312     -1292.48912        15.04812
E30                    -66459.27024       294.07224        25.99524                   -168377.38912       224.57712        15.90712
E36                    432085.27023     -2239.02123        19.02023                                                                
> 2022 11 17 13 17 07.9996488  0 9                      
G08  20522851.22624    261025.36424     -1356.52424        29.32724                                                                
G10  25344389.04514   -227558.56614       986.93914        23.62814                   -207455.14013       736.67513        21.11013
G16  23774053.36513    664476.03213     -2732.75713        20.93413                                                                
G27  22329641.31113    768783.69713     -2963.30413        22.70013                                                                
G30                   -522708.13213      2573.17813        18.01813                                                                
R17                    707588.86512     -2975.15112        16.73612
E02                    388714.17124     -1718.89824        27.13024                    508535.11012     -1300.40312        15.75912
E30                    -66753.28114       293.99214        25.82514                   -168611.66112       220.42712        13.92012
E36                    434324.64623     -2239.37623        18.59423                                                                
> 2022 11 17 13 17 08.9996487  0 9                      
G08  20523078.46824    262382.33524     -1356.97124        29.23324                                                                
G10  25344170.79624   -228544.66724       986.10124        23.64724                   -208191.62513       735.25913        19.73213
G16  23774548.32313    667204.87213     -2730.15513        21.13613                                                                
G27  22330168.64613    771746.05613     -2962.05713        21.16213                                                                
G30                   -525284.11313      2578.30113        17.51413                                                                
R17                    710565.58813     -2969.28513        18.34013
E02                    390433.43214     -1720.02914        27.35414                    509830.53912     -1300.72912        15.20812
E30                    -67046.90324       293.62224        26.23424                   -168834.18812       225.12512        16.78012
E36                    436564.26123     -2239.61523        18.71823                                                                
> 2022 11 17 13 17 09.9996487  0 9                      
G08  20523332.69224    263739.83924     -1357.50324        29.36924                                                                
G10  25343984.32513   -229530.28313       984.68813        22.31513                   -208927.65213       735.52213        20.16413
G16  23775068.76213    669934.44413     -2733.16413        22.51213                                                                
G27                    774708.76613     -2968.42613        19.55213                                                                
G30                   -527857.68812      2577.54812        17.27512                                                                
R17                    713533.19413     -2970.79813        19.51813
E02                    392152.95024     -1719.51724        26.97424                    511127.98412     -1299.63112        14.77312
E30                    -67340.16724       293.26324        26.10824                   -169056.17412       229.23712        15.60312
E36                    438804.60123     -2240.34123        18.61023                                                                
> 2022 11 17 13 17 10.9996486  0 9                      
G08  20523566.53124    265097.71024     -1357.87224        28.93224                                                                
G10  25343759.18113   -230515.32013       981.75613        21.63013                   -209663.36013       735.58913        20.62313
G16  23775557.42413    672664.02113     -2732.53813        22.29313                                                                
G27                    777671.57313     -2968.18813        17.69513                                                                
G30                   -530426.12912      2573.10312        16.45812                                                                
R17                    716499.73813     -2976.43413        18.42913
E02                    393872.82224     -1719.87224        27.04524                    512422.40912     -1297.89412        15.92512
E30                    -67633.18124       293.01424        26.30024                   -169277.99412       230.94712        15.78512
E36                    441045.05622     -2240.45522        16.54122                                                                
> 2022 11 17 13 17 11.9996486  0 9                      
G08  20523824.65224    266455.99524     -1358.28524        28.99924                                                                
G10  25343573.60913   -231500.04413       981.49113        21.84313                   -210398.46623       735.10623        21.62023
G16  23776074.26613    675393.73913     -2727.13213        22.71513                                                                
G27                    780637.01013     -2965.56113        17.68813                                                                
G30                   -532996.80813      2573.69113        18.02313                                                                
R17                    719472.82812     -2982.60612        16.65612
E02                    395592.93424     -1720.11224        26.79624                    513721.32412     -1299.14812        16.93112
E30                    -67925.80014       292.46714        26.35314                   -169499.33912       225.53712        13.07412
E36                    443286.30222     -2241.24522        15.27322                                                                
> 2022 11 17 13 17 12.9996485  0 9                      
G08  20524052.19424    267814.72324     -1358.72824        29.20624                                                                
G10  25343360.15713   -232484.10613       983.21413        22.68513                   -211133.49313       734.90713        21.36413
G16  23776573.12113    678123.88213     -2727.03613        22.19213                                                                
G27                    783599.06313     -2960.26513        18.94613                                                                
G30                   -535571.07312      2572.10912        16.57312                                                                
R17                    722450.54812     -2980.24012        17.34812
E02                    397313.27824     -1720.34424        26.51624                    515014.75412     -1295.80912        14.74012
E30                    -68218.27924       292.47924        26.12124                   -169720.34212       214.76012        12.66812
E36                    445527.55312     -2246.50012        13.91812                                                                
> 2022 11 17 13 17 13.9996484  0 9                      
G08  20524280.63624    269173.97224     -1359.24924        29.11424                                                                
G10  25343140.10923   -233467.70823       983.60223        23.28723                   -211867.84023       734.34723        21.06123
G16  23777055.48713    680854.33513     -2735.03013        21.95113                                                                
G27  22332906.35113    786561.54013     -2959.91013        20.72213                                                                
G30                   -538144.83612      2571.16812        16.40512                                                                
R17                    725431.13213     -2971.99613        18.53513
E02                    399034.00124     -1720.72324        26.84924                    516312.07612     -1295.67412        15.15412
E30                    -68510.22014       291.34214        26.32314                   -169941.52812       212.27912        14.40912
E36                    447769.44123     -2241.88823        18.43323                                                                
> 2022 11 17 13 17 14.9996484  0 9                      
G08  20524539.35724    270533.79724     -1359.82424        28.79824                                                                
G10  25342957.23624   -234450.37324       982.66424        24.07424                   -212601.64423       733.80423        20.94623
G16  23777579.22413    683585.06713     -2731.68213        21.63313                                                                
G27  22333461.26613    789525.42213     -2963.00513        21.89313                                                                
G30                   -540717.94712      2568.79412        16.20812                                                                
R17                    728402.76713     -2973.69613        18.25713
E02                    400755.19924     -1721.19824        26.67724                    517608.22512     -1304.55312        16.55912
E30                    -68801.83924       291.61924        26.51824                   -170161.89912       212.49612        15.09312
E36                    450011.87423     -2242.43223        18.94623                                                                
> 2022 11 17 13 17 15.9996483  0 9                      
G08  20524768.69824    271894.03024     -1360.23424        28.67624                                                                
G10  25342738.98713   -235432.61613       981.69613        23.44013                   -213335.26313       734.08113        21.74713
G16  23778061.59013    686316.04413     -2731.69313        21.39813                                                                
G27  22333989.80113    792489.54613     -2965.07113        22.44513                                                                
G30                   -543288.22812      2577.94612        15.53412                                                                
R17                    731372.76913     -2979.45513        19.06813
E02                    402476.63124     -1721.43224        26.97524                    518904.50812     -1304.28312        16.34412
E30                    -69093.20124       291.36224        26.26224                   -170382.20112       217.08212        15.83212
E36                    452254.77923     -2242.90523        19.29323                                                                
> 2022 11 17 13 17 16.9996483  0 9                      
G08  20525026.82024    273254.72424     -1360.69424        28.69324                                                                
G10  25342552.81613   -236414.39313       981.64713        23.30213                   -214068.23113       732.70013        20.56213
G16  23778578.73213    689047.31713     -2733.09613        22.11413                                                                
G27  22334547.41513    795453.72313     -2965.98213        21.51913                                                                
G30                   -545867.41712      2573.62212        16.57312                                                                
R17                    734346.82113     -2979.79013        19.15413
E02                    404198.24724     -1721.61524        27.05724                    520197.84912     -1309.14712        15.46812
E30                    -69384.22124       291.02024        26.42324                   -170602.34612       210.62212        15.75112
E36                    454497.94523     -2243.16623        19.41023                                                                
> 2022 11 17 13 17 17.9996482  0 9                      
G08  20525254.36224    274615.83224     -1361.10824        28.75824                                                                
G10  25342337.26513   -237395.61813       978.69713        22.72313                   -214801.07813       732.80613        20.69413
G16  23779074.88913    691778.69913     -2731.99813        22.47013                                                                
G27  22335087.64113    798418.28113     -2963.80613        21.41813                                                                
G30                   -548435.35712      2569.03812        15.93612                                                                
R17                    737330.55313     -2979.35113        19.09413
E02                    405920.14724     -1721.90024        27.03724                    521497.16412     -1292.85512        15.75712
E30                    -69674.99824       290.77624        26.13924                   -170822.44412       220.25112        14.90712
E36                    456741.55323     -2243.60823        18.81123                                                                
> 2022 11 17 13 17 18.9996482  0 9                      
G08  20525513.68324    275977.31724     -1361.48524        29.00724                                                                
G10  25342152.89324   -238376.17624       980.55724        23.98124                   -215533.38113       732.47113        20.99613
G16  23779595.02913    694506.44513     -2726.76713        22.64213                                                                
G27  22335654.84813    801382.95513     -2962.89113        22.19113                                                                
G30                   -550998.57412      2560.56512        16.27412                                                                
R17                    740308.80513     -2975.58713        18.07013
E02                    407642.37624     -1722.22924        27.20224                    522793.75012     -1294.92112        14.81612
E30                    -69965.47124       290.47324        26.63324                   -171042.19812       217.03612        15.59712
E36                    458985.60622     -2244.05322        17.21522                                                                
> 2022 11 17 13 17 19.9996481  0 9                      
G08  20525742.12424    277339.22324     -1361.90624        29.00124                                                                
G10  25341932.24524   -239356.42924       980.25324        23.54124                   -216265.22723       731.84623        20.29523
G16  23780094.48314    697233.08014     -2730.82014        23.54714                                                                
G27  22336184.28113    804347.64413     -2964.69613        21.16713                                                                
G30                   -553559.81212      2562.81512        15.90912                                                                
R17                    743283.58713     -2976.62613        19.09713
E02                    409364.82424     -1722.44824        26.96224                    524087.77612     -1305.30612        13.33212
E30                    -70255.78824       290.31724        26.20424                   -171261.84713       220.94413        17.57113
E36                    461229.93022     -2244.32422        17.17622                                                                
> 2022 11 17 13 17 20.9996481  0 9                      
G08  20526004.44324    278701.54924     -1362.32624        29.05524                                                                
G10  25341745.77413   -240338.16613       980.30013        23.05813                   -216996.83323       731.60723        20.94023
G16  23780614.62313    699965.25313     -2732.32413        23.33813                                                                
G27  22336752.68813    807316.11013     -2965.01713        20.70213                                                                
G30                   -556127.55912      2574.72212        15.96212                                                                
R17                    746259.66413     -2979.17113        18.96413
E02                    411087.62524     -1722.80124        26.94824                    525380.18412     -1304.95912        14.99012
E30                    -70545.61324       289.82424        26.17424                   -171481.06012       219.62712        16.13712
E36                    463474.72122     -2244.79122        16.58822                                                                
> 2022 11 17 13 17 21.9996480  0 9                      
G08  20526232.88524    280064.22824     -1362.67924        29.31424                                                                
G10  25341524.52813   -241322.80413       980.68313        22.84513                   -217728.05813       731.38413        21.59313
G16  23781100.58723    702697.51223     -2732.25823        23.40823                                                                
G27  22337277.02513    810282.98813     -2965.44013        20.69713                                                                
G30                   -558710.43212      2579.08612        15.47612                                                                
R17                    749241.78413     -2977.94513        18.56613
E02                    412810.46724     -1722.84224        27.07424                    526678.97012     -1300.73112        14.05112
E30                    -70835.32624       289.71324        26.58124                   -171700.33012       219.65012        15.03712
E36                    465719.75723     -2245.03623        18.33223                                                                
> 2022 11 17 13 17 22.9996480  0 9                      
G08  20526495.20324    281427.44524     -1363.21724        29.09224                                                                
G10  25341343.15313   -242301.24713       978.06413        23.31213                   -218458.81313       730.84813        21.45313
G16  23781619.52714    705430.22914     -2733.43914        23.85014                                                                
G27  22337847.23013    813250.93013     -2962.98613        20.98613                                                                
G30                   -561287.47812      2566.87412        17.38412                                                                
R17                    752222.15213     -2980.27613        18.33113
E02                    414533.80324     -1723.33524        26.96024                    527974.39912     -1306.02012        12.58812
E30                    -71124.67324       289.34724        26.08824                   -171919.03412       216.11712        16.91512
E36                    467965.35222     -2245.59522        17.29322                                                                
> 2022 11 17 13 17 23.9996479  0 9                      
G08  20526724.54424    282791.26824     -1363.82324        29.03124                                                                
G10  25341128.20213   -243279.12613       977.74013        23.41113                   -219188.91823       730.10523        21.18623
G16  23782103.09324    708163.21024     -2732.98024        23.62724                                                                
G27  22338386.55713    816216.98313     -2968.76613        21.67913                                                                
G30                   -563849.13012      2563.79112        15.68812                                                                
R17                    755204.66413     -2982.60813        18.19113
E02                    416257.66324     -1723.86124        26.66924                    529259.71911     -1292.19911        11.40611
E30                    -71413.57514       289.01014        26.40414                   -172137.67312       218.76412        15.64112
E36                    470211.65922     -2246.30722        17.25122                                                                
> 2022 11 17 13 17 24.9996479  0 9                      
G08  20526980.26724    284155.66324     -1364.39524        28.94024                                                                
G10  25340946.82824   -244256.89624       977.77024        23.53424                   -219918.64113       728.84213        21.55913
G16  23782634.62524    710896.39424     -2733.18424        23.58124                                                                
G27  22338952.26513    819183.24913     -2966.93313        21.43913                                                                
G30                   -566417.42112      2561.64812        14.78712                                                                
R17                    758189.33313     -2982.00213        18.45913
E02                    417981.74414     -1724.55414        26.17014                    530550.77511     -1321.13511        12.38911
E30                    -71701.98924       288.41424        26.15524                   -172356.01012       218.76712        14.66112
E36                    472458.25323     -2246.59523        18.01123                                                                
> 2022 11 17 13 17 25.9996477  0 9                      
G08  20527212.00724    285520.50824     -1364.84524        28.87424                                                                
G10  25340726.18013   -245232.90013       975.84413        23.49213                   -220647.97313       729.41713        21.91113
G16  23783120.28814    713630.06114     -2734.05914        24.14414                                                                
G27  22339498.18713    822149.77813     -2966.35913        21.17513                                                                
G30                   -568982.07112      2566.27012        14.72612                                                                
R17                    761168.82213     -2980.84213        17.99913
E02                    419706.26514     -1724.78514        26.25014                    531858.91212     -1311.21312        16.93212
E30                    -71990.11224       288.12324        26.31424                   -172573.79512       220.77812        15.78412
E36                    474705.46423     -2247.21123        18.67023                                                                
> 2022 11 17 13 17 26.9996478  0 9                      
G08  20527469.22924    286885.64324     -1365.13424        28.88524                                                                
G10  25340535.51213   -246209.11513       976.14013        23.21113                   -221376.90713       728.28413        21.43813
G16  23783641.32814    716363.70214     -2733.62714        23.88214                                                                
G27  22340059.09913    825116.44313     -2962.92913        22.75113                                                                
G30                   -571550.55412      2571.33812        15.10212                                                                
R17                    764146.92613     -2981.49913        19.85913
E02                    421430.89714     -1724.66714        26.26914                    533152.52112     -1311.73412        15.39812
E30                    -72278.11524       288.00324        26.35524                   -172791.91612       222.83112        15.96712
E36                    476952.79123     -2247.32723        18.36023                                                                
> 2022 11 17 13 17 27.9996477  0 9                      
G08  20527699.76924    288251.29224     -1365.65024        28.75024                                                                
G10  25340318.46324   -247184.71924       975.60424        24.11624                   -222105.49213       727.88213        21.62613
G16  23784129.69024    719097.70324     -2734.00124        24.27524                                                                
G27  22340583.73613    828083.35913     -2965.51513        21.95113                                                                
G30                   -574123.01312      2568.94712        15.21512                                                                
R17  20349676.71213    767130.50813     -2987.36213        20.90913
E02                    423155.72514     -1724.68214        26.28114                    534454.44212     -1297.91312        15.23512
E30                    -72565.65114       286.83314        25.83614                   -173009.26612       215.21912        14.09312
E36                    479200.66723     -2247.87623        17.98423                                                                
> 2022 11 17 13 17 28.9996477  0 9                      
G08  20527962.68724    289617.38524     -1366.09324        28.75024                                                                
G10  25340134.69024   -248159.77924       975.05924        24.28324                   -222833.69913       728.16713        21.21213
G16  23784648.63024    721832.11924     -2734.41624        24.02124                                                                
G27  22341150.34313    831050.59913     -2967.47213        21.83613                                                                
G30                   -576695.72812      2564.70812        17.06112                                                                
R17  20350244.51913    770114.95213     -2986.86913        21.23813
E02                    424881.04924     -1725.32424        26.64124                    535747.94412     -1298.78112        14.97512
E30                    -72852.96624       287.31624        26.24524                   -173226.54812       214.02612        15.64012
E36                    481449.09423     -2248.42723        17.63423                                                                
> 2022 11 17 13 17 29.9996476  0 9                      
G08  20528192.02824    290983.82724     -1366.44224        28.60124                                                                
G10  25339920.33814   -249134.47314       974.34014        23.85714                   -223561.30913       726.91513        20.88613
G16  23785136.39324    724566.49124     -2734.37224        24.17424                                                                
G27  22341691.46913    834017.80613     -2969.06613        22.70313                                                                
G30                   -579260.46712      2560.67612        15.28812                                                                
R17  20350759.56213    773099.85413     -2986.38913        20.89513
E02                    426606.56324     -1725.51424        26.33224                    537046.05812     -1301.13612        14.42012
E30                    -73140.01524       287.04824        26.07224                   -173443.59712       208.87612        16.76112
E36                    483697.63723     -2248.54323        18.45023                                                                
> 2022 11 17 13 17 30.9996476  0 9                      
G08  20528450.44924    292350.83124     -1367.00424        28.50624                                                                
G10  25339734.16714   -250108.85414       973.82214        24.24514                   -224288.79013       727.33713        21.09913
G16  23785666.72624    727300.85824     -2734.36624        23.66724                                                                
G27  22342255.37813    836985.49813     -2969.59013        22.00713                                                                
G30                   -581825.05212      2568.59212        17.32012                                                                
R17  20351299.48913    776085.47713     -2987.09013        21.41113
E02                    428332.41824     -1725.85524        26.27524                    538339.32712     -1305.05512        13.11212
E30                    -73426.71324       286.69824        25.79924                   -173660.31212       205.98612        14.29012
E36                    485946.83423     -2249.19723        19.07423                                                                
> 2022 11 17 13 17 31.9996475  0 9                      
G08  20528679.79124    293718.29824     -1367.46724        28.63124                                                                
G10  25339521.91424   -251082.23624       973.38324        23.98324                   -225015.62813       726.54113        21.65413
G16  23786149.39124    730035.81224     -2734.95524        23.57024                                                                
G27  22342782.71313    839953.28213     -2966.76713        21.84813                                                                
G30                   -584388.86612      2566.39212        17.39312                                                                
R17  20351843.01213    779071.78413     -2986.50913        20.95913
E02                    430058.54024     -1726.12224        26.63324                    539636.18312     -1299.65012        15.32812
E30                    -73712.93024       286.21724        26.00924                   -173876.78811       204.91611        11.60011
E36                    488196.38323     -2249.54923        17.81023                                                                
> 2022 11 17 13 17 32.9996475  0 9                      
G08  20528939.41124    295086.13124     -1367.83324        28.76724                                                                
G10  25339339.34013   -252058.90713       975.16513        22.52913                   -225742.09913       726.11713        21.95013
G16  23786679.72413    732771.46313     -2734.48913        23.49913                                                                
G27  22343347.22313    842921.36813     -2962.59513        22.78613                                                                
G30                   -586952.91313      2561.60213        18.12613                                                                
R17  20352427.00813    782058.69013     -2989.56713        20.61113
E02                    431784.93624     -1726.39624        26.62224                    540930.94612     -1306.50312        14.29612
E30                    -73999.03024       286.10024        26.21824                   -174093.66212       215.92312        17.21112
E36                    490446.39923     -2250.01623        17.69023                                                                
> 2022 11 17 13 17 33.9996474  0 9                      
G08  20529168.75224    296454.50224     -1368.37124        29.25924                                                                
G10  25339119.89213   -253032.11513       976.43813        22.05313                   -226468.15123       726.05223        22.40023
G16  23787164.18924    735507.12724     -2735.66424        24.05124                                                                
G27  22343888.04813    845889.80413     -2967.02713        21.58913                                                                
G30                   -589512.42513      2559.99313        18.82013                                                                
R17  20352947.44813    785046.16213     -2991.94413        20.97913
E02                    433511.72224     -1726.78624        26.72624                    542231.40812     -1302.33312        13.81612
E30                    -74284.77224       285.74224        26.30724                   -174309.85312       220.03012        15.72812
E36                    492696.59712     -2249.61312        15.44412                                                                
> 2022 11 17 13 17 34.9996474  0 9                      
G08  20529428.67224    297823.27324     -1368.77024        28.89124                                                                
G10  25338929.82413   -254003.99713       975.10813        21.43813                   -227193.77713       724.90713        22.46913
G16  23787683.42913    738242.94213     -2736.92713        22.94413                                                                
G27  22344439.66613    848858.39413     -2967.30713        21.00813                                                                
G30                   -592070.23813      2559.68713        18.86213                                                                
R17  20353499.06613    788034.25213     -2989.34013        21.01513
E02                    435238.71124     -1726.98924        26.38324                    543524.68012     -1306.05912        15.09312
E30                    -74570.24024       285.46924        26.46324                   -174525.89612       219.94312        15.01412
E36                    494947.58112     -2251.42312        14.19412                                                                
> 2022 11 17 13 17 35.9996473  0 9                      
G08  20529664.00924    299192.61724     -1369.34424        28.53324                                                                
G10  25338711.87513   -254973.72913       970.95113        21.61313                   -227919.04323       725.26523        22.14623
G16  23788174.78914    740978.94514     -2735.92614        23.64214                                                                
G27  22344975.69513    851828.03013     -2967.20213        20.94613                                                                
G30                   -594626.39213      2561.95113        18.46013                                                                
R17  20354014.70913    791023.00613     -2988.73513        21.14313
E02                    436966.13824     -1727.42724        26.69224                    544822.04412     -1297.95112        14.65712
E30                    -74855.31324       285.07324        26.67624                   -174741.23912       217.12612        16.69312
E36                    497198.81112     -2251.59512        14.72312                                                                
> 2022 11 17 13 17 36.9996473  0 9                      
G08  20529923.63024    300562.40324     -1369.78624        28.65424                                                                
G10  25338524.80413   -255944.30213       966.57013        21.82913                   -228643.76323       724.72023        22.09523
G16  23788698.82614    743714.90114     -2736.47014        23.61314                                                                
G27  22345553.09513    854797.26113     -2973.89713        22.61213                                                                
G30                   -597184.42113      2563.57713        17.75913                                                                
R17  20354554.03513    794009.24013     -2987.75713        20.31913
E02                    438693.88424     -1727.74524        26.41524                    546115.49711     -1315.03511        12.02911
E30                    -75139.95424       284.64124        26.18824                   -174956.63012       212.93012        16.52812
E36                    499450.63622     -2251.82522        15.86722                                                                
> 2022 11 17 13 17 37.9996472  0 9                      
G08  20530157.16824    301932.31124     -1369.90824        28.91724                                                                
G10  25338320.94513   -256914.61413       967.08013        21.00613                   -229368.31013       724.05113        21.78713
G16  23789178.79423    746451.21323     -2736.31223        23.32423                                                                
G27  22346091.82313    857766.28013     -2971.38513        22.90313                                                                
G30                   -599752.59113      2562.96913        17.94213                                                                
R17  20355095.76013    796992.82413     -2989.63213        20.23013
E02                    440421.54724     -1727.66324        26.61524                    547416.15212     -1304.10912        12.74112
E30                    -75424.67414       284.57314        26.20814                   -175172.01012       208.68012        16.68212
E36                    501702.65812     -2252.52412        15.45212                                                                
> 2022 11 17 13 17 38.9996471  0 9                      
G08  20530386.80924    303302.72724     -1370.41624        29.14224                                                                
G10  25338108.99213   -257884.36513       968.07013        22.52413                   -230092.47913       723.75613        22.04513
G16  23789667.75624    749187.74824     -2736.53524        23.55924                                                                
G27  22346618.25824    860735.62624     -2969.34724        23.55024                                                                
G30                   -602308.47713      2556.34213        17.64113                                                                
R17  20355638.98413    799983.29313     -2993.62113        20.30513
E02                    442149.56424     -1728.01724        26.32524                    548713.49912     -1313.06612        13.62212
E30                    -75709.04924       284.37524        26.34324                   -175386.90212       205.34712        15.69812
E36                    503954.76112     -2252.10412        14.99412                                                                
> 2022 11 17 13 17 39.9996471  0 9                      
G08  20530647.92824    304673.83124     -1371.10424        29.26824                                                                
G10  25337922.82113   -258853.21413       969.11413        22.55313                   -230815.95013       722.53513        21.95313
G16  23790193.29224    751924.92724     -2737.17924        23.59524                                                                
G27  22347186.06524    863705.30024     -2969.67424        24.27324                                                                
G30                   -604859.20412      2557.50012        16.33312                                                                
R17  20356198.09713    802979.88613     -2993.00713        21.06813
E02                    443878.14224     -1728.57824        26.43324                    550006.86712     -1301.09812        16.12612
E30                    -75992.90824       283.85924        26.56324                   -175601.74912       200.13612        14.75612
E36                    506207.88212     -2250.94512        14.39112                                                                
> 2022 11 17 13 17 40.9996470  0 9                      
G08  20530876.97024    306045.30324     -1371.47224        29.21924                                                                
G10  25337705.47213   -259821.62913       967.06713        21.97413                   -231539.19613       722.75413        21.13013
G16  23790682.25314    754662.77214     -2737.61014        23.62314                                                                
G27  22347726.89114    866675.28714     -2969.76214        24.83014                                                                
G30                   -607414.20712      2552.34212        15.81612                                                                
R17  20356735.92513    805971.23313     -2993.61013        20.80813
E02                    445606.93124     -1728.78924        26.56324                    551301.68112     -1308.25912        13.72512
E30                    -76276.46324       283.55424        26.21724                   -175816.04812       200.26212        15.75012
E36                    508461.18112     -2250.17312        14.63912                                                                
