     3.03           OBSERVATION DATA    M                   RINEX VERSION / TYPE
GnssLogger          Xiaomi 10           20221118 113319 UTC PGM / RUN BY / DATE
Google GnssLogger                                           MARKER NAME
G    8 C1C L1C D1C S1C C5Q L5Q D5Q S5Q                      SYS / # / OBS TYPES
R    4 C1C L1C D1C S1C                                      SYS / # / OBS TYPES
J    8 C1C L1C D1C S1C C5Q L5Q D5Q S5Q                      SYS / # / OBS TYPES
C    4 C2C L2C D2C S2C                                      SYS / # / OBS TYPES
E    8 C1C L1C D1C S1C C5Q L5Q D5Q S5Q                      SYS / # / OBS TYPES
  2022    11    18    11    33   19.0000000     GPS         TIME OF FIRST OBS
 8 R06 -4 R07  5 R09 -2 R105  5 R15  0 R17  4 R19  3 R96 -4  GLONASS SLOT / FRQ #
                                                            END OF HEADER
> 2022 11 18 11 33 19.7049990  0 26                      
G04                     28265.95913     -2672.96513        19.23313                                                                
G07                    -32599.11617      3057.79417        43.41817                                                                
G08                    -14891.98817      1482.37617        41.78317                   -130514.73811      1227.40911         8.63811
G09                      9906.30416      -934.12416        38.32216                     94894.66712      -692.69212        13.30412
G16                     19675.14315     -1777.34015        32.84615                                                                
G18                     21638.91515     -2039.47815        30.64815                                                                
G21                    -37520.86712      3547.91312        14.83012                                                                
G26                     26977.23413     -2530.88713        23.31213                    263167.65411     -1882.93511         8.56811
G27                      9436.07914      -891.80114        28.17714                     93643.82611      -653.66811         7.82511
R09                    -30771.93516      3061.30116        38.27116
R15                     17025.94515     -1696.03315        30.32515
R19                    -33512.29011      4129.04311         9.13011
R17                     25635.59816     -2493.34416        38.45716
R07                      2209.18416      -225.44916        39.81816
J02                     -2017.07115       181.45915        31.71515                    -15599.53911       261.55611        10.21011
J04                      3284.65316      -310.48716        38.88216                     30600.35011      -224.40011        12.29811
C01                       904.33913       -86.17613        22.57213
C06                     10754.72016     -1069.40716        38.17416
C07                      -300.53816        29.27316        36.52716
C09                      4936.46716      -491.22716        37.06916
C10                     -1172.15115       118.87615        34.60915
C16                     12154.08814     -1214.07614        25.41614
C27                      3126.65416      -284.57516        40.94616
C28                     28726.24615     -2820.94815        33.30515
C36                    -23477.32415      2116.88815        32.73315
C37                     26076.63013     -2352.85013        18.89013
> 2022 11 18 11 33 20.7049990  0 27                      
G04                     30940.28713     -2671.97313        20.32513                                                                
G07                    -35659.12716      3056.48316        40.68916                                                                
G08                    -16372.98516      1482.12716        39.30216                   -131694.14511      1227.39011         7.00011
G09                     10837.91416      -934.65416        36.22716                     95510.74611      -564.31911         8.25211
G16                     21452.06415     -1776.93915        32.55415                                                                
G18                     23676.21214     -2039.96314        28.56514                                                                
G21                    -41066.94213      3546.63213        17.76713                                                                
G26                     29504.32514     -2531.79514        29.03614                    264973.61311     -1757.97311         8.74711
G27                     10327.29815      -890.95015        32.90915                     94219.29111      -531.37411         7.00011
R09                    -33835.82315      3063.00615        34.02115
R15                     18719.85115     -1693.07815        33.24115
R19                    -37635.64311      4122.05511         7.36211
R17                     28132.40515     -2497.80215        33.98215
R07                      2434.72716      -225.75216        39.35816
J02                     -2201.03614       182.88614        28.53214                    -15807.42211       256.12611         7.00011
J04                      3596.97015      -311.50915        35.31515                     30830.70314      -233.92114        27.23214
C01                       990.47114       -86.14514        25.26714
C06                     11825.83715     -1069.86915        34.63415
C07                      -329.47316        28.70416        39.78816
C09                      5429.12515      -492.06715        30.07215
C10                     -1289.42415       117.49015        34.18515
C16                     13366.63014     -1213.61514        28.06114
C22                      6372.02613     -1563.38213        22.70513
C27                      3413.22816      -286.24316        37.82116
C28                     31565.75615     -2788.48015        31.61115
C36                    -25640.80615      2135.56115        30.71615
C37                     28430.65313     -2354.73513        18.40013
> 2022 11 18 11 33 21.7049990  0 27                      
G04                     33614.91613     -2673.19513        20.18813                                                                
G07                    -38714.81916      3056.12816        40.82116                                                                
G08                    -17851.40315      1478.70015        34.67215                   -132944.60511      1102.42811         7.00011
G09                     11775.44215      -938.97715        31.74615                     96066.39911      -579.50311         7.00011
G16                     23231.73915     -1778.59215        32.54815                                                                
G18                     25714.95916     -2041.24116        35.73816                                                                
G21                    -44612.82512      3547.15812        13.39612                                                                
G26                     32037.44215     -2538.75015        30.77115                    266705.41411     -1882.93511         7.00011
G27                     11221.25116      -892.89816        35.73116                     94728.77811      -653.66811         8.63611
R09                    -36900.93415      3064.44515        32.44915
R15                     20413.93415     -1693.25115        34.92915
R19                    -41752.03111      4115.08011        12.34811
R17                     30633.70715     -2501.30015        31.88215
R07                      2661.32515      -225.79715        32.23815
J02                     -2386.18815       181.27015        32.00415                    -16079.57311       136.57511         7.00011
J04                      3912.19215      -315.42215        31.94715                     31063.67615      -238.45515        30.78815
C01                      1076.91614       -86.82714        25.46414
C06                     12898.61515     -1073.92915        32.67815
C07                      -357.40916        28.29816        38.21416
C09                      5924.41415      -492.05215        31.92415
C10                     -1403.80715       114.57415        35.08315
C16                     14581.33814     -1213.13614        25.11314
C22                      7937.85613     -1564.88313        21.27913
C27                      3702.89815      -289.31915        33.61715
C28                     34409.17314     -2788.48014        28.21814
C36                    -27812.94714      2129.70214        25.46314
C37                     30784.26612     -2356.54712        16.76112
> 2022 11 18 11 33 22.7049989  0 27                      
G04                     36290.45613     -2674.48413        17.94313                                                                
G07                    -41771.29116      3055.71416        37.00016                                                                
G08                    -19328.67715      1477.43415        33.63515                   -134173.98711      1227.39011         7.00011
G09                     12714.69715      -940.24215        30.56315                     96688.12811      -577.18211         9.41911
G16                     25015.85415     -1781.43215        31.50615                                                                
G18                     27757.15116     -2041.95616        38.86616                                                                
G21                    -48159.48212      3546.37812        14.52612                                                                
G26                     34570.87415     -2537.61715        30.78015                    268512.09211     -1757.95411         7.00011
G27                     12115.43615      -891.86915        34.27115                     95304.07711      -532.91711         7.00011
R09                    -39966.43815      3064.23315        31.88315
R15                     22108.03115     -1694.11915        31.98115
R19                    -45861.20711      4107.75611        10.90011
R17                     33136.57316     -2501.86016        38.33116
R07                      2885.48115      -225.75415        31.96115
J02                     -2566.62714       180.86114        29.32914                    -16331.42511       250.20011         7.00011
J04                      4229.48715      -316.43715        29.96915                     31301.60415      -239.33815        30.04415
C01                      1163.37513       -86.37513        22.93113
C06                     13974.28415     -1076.47815        33.58415
C07                      -385.92116        29.15416        37.25316
C09                      6417.67215      -492.75915        32.96415
C10                     -1518.08615       113.15815        30.54815
C16                     15797.37014     -1211.71914        25.39614
C22                      9502.67113     -1562.84113        19.25813
C27                      3992.43815      -289.48515        30.34915
C28                     37318.86815     -2788.48015        30.04915
C36                    -30057.72415      2101.15915        31.33515
C37                     33139.26812     -2357.09812        16.84012
> 2022 11 18 11 33 23.7049987  0 27                      
G04                     38965.24813     -2674.47913        18.64713                                                                
G07                    -44827.20916      3055.09516        37.12216                                                                
G08                    -20804.20016      1475.24916        37.71816                   -135353.35711      1227.39011         7.00011
G09                     13653.05715      -941.58715        29.57415                     97244.76911      -580.31611         7.00011
G16                     26801.04615     -1783.87715        33.90715                                                                
G18                     29799.97016     -2042.87016        40.38916                                                                
G21                    -51706.71912      3545.01312        12.60912                                                                
G26                     37108.45515     -2540.49515        32.72815                    270246.55311     -1882.93511         7.00011
G27                     13007.31815      -891.35215        31.85815                     95813.36711      -653.66811         7.73511
R09                    -43030.78715      3062.72415        32.97415
R15                     23803.92214     -1694.72514        29.48114
R19                    -49963.36311      4101.00011         7.00011
R17                     35637.47516     -2501.48016        38.25516
R07                      3108.06715      -225.80415        30.15815
J02                     -2745.57814       179.34414        29.25414                    -16537.33211       250.20011         7.00011
J04                      4545.34614      -316.59414        28.54514                     31537.92814      -239.97114        27.09114
C01                      1249.80514       -86.90414        28.97614
C06                     15051.27115     -1078.22715        31.24715
C07                      -414.46316        29.10316        36.26616
C09                      6911.99914      -495.52414        28.59014
C10                     -1630.81515       111.89615        29.85215
C16                     17008.31714     -1210.52114        25.12714
C22                     11067.54313     -1567.33413        20.00713
C27                      4281.59015      -289.26915        31.97115
C28                     40229.19614     -2854.71614        27.50614
C36                    -32322.99815      2243.74915        31.82515
C37                     35498.28712     -2359.47312        16.48912
> 2022 11 18 11 33 24.7049987  0 27                      
G04                     41642.18713     -2677.04913        21.30113                                                                
G07                    -47882.76316      3055.00216        37.18616                                                                
G08                    -22278.53116      1473.66916        38.53116                   -136603.72211      1102.42811         7.00011
G09                     14592.22514      -941.08414        28.90714                     97871.51711      -573.86611         9.37211
G16                     28585.74216     -1785.15416        35.90216                                                                
G18                     31844.58016     -2044.60316        41.43816                                                                
G21                    -55254.64011      3548.19711         7.27711                                                                
G26                     39648.69415     -2540.93015        32.46115                    272052.30811     -1757.95411         7.00011
G27                     13901.40615      -894.66915        34.61515                     96388.88711      -532.93611         9.26811
R09                    -46092.62315      3061.71115        32.77115
R15                     25501.86114     -1694.70914        26.94814
R19                    -54059.35211      4096.17211        10.08011
R17                     38139.02416     -2500.75816        37.58516
R07                      3335.15315      -226.95215        30.53115
J02                     -2924.70814       178.47714        28.35114                    -16807.13311       136.57511         7.00011
J04                      4859.73414      -318.00314        27.46914                     31773.64414      -240.79814        24.78314
C01                      1336.30614       -86.60614        26.20014
C06                     16127.96215     -1078.18115        30.08715
C07                      -441.88615        27.29015        30.88015
C09                      7406.63015      -494.85915        33.75015
C10                     -1744.48515       112.28515        30.28415
C16                     18222.53714     -1210.51714        23.79014
C22                     12639.14113     -1572.97413        20.23513
C27                      4571.74315      -289.44415        33.49115
C28                     43178.17114     -2857.31614        24.02414
C36                    -34594.78714      2237.76514        28.86314
C37                     37858.21112     -2359.70812        15.70012
> 2022 11 18 11 33 25.7049987  0 27                      
G04                     44322.66813     -2681.35213        20.51113                                                                
G07                    -50937.24716      3055.00816        37.09416                                                                
G08                    -23751.46615      1473.23215        34.44415                   -137833.09611      1227.37111         7.00011
G09                     15531.18214      -942.16314        25.80814                     98426.17811      -574.64011         7.00011
G16                     30371.43516     -1787.03116        35.72916                                                                
G18                     33889.86017     -2045.95417        42.26117                                                                
G21                    -58802.43511      3548.86611        10.73711                                                                
G26                     42190.82216     -2541.58616        36.51816                    273783.83011     -1755.08211         7.49411
G27                     14799.20316      -897.73316        37.46416                     96895.62811      -653.66811         7.00011
R09                    -49152.39115      3061.89915        32.49715
R15                     27198.49915     -1698.04915        31.21215
R19                    -58148.82311      4089.98411         8.13711
R17                     40641.45516     -2501.79516        36.79616
R07                      3565.34015      -227.35215        30.08415
J02                     -3106.56015       177.32615        33.41115                    -17056.69211       250.18011         7.00011
J04                      5178.74015      -319.23815        34.96415                     32013.20415      -239.78915        31.26415
C01                      1423.35315       -87.45615        31.28415
C06                     17205.72314     -1078.77614        29.20814
C07                      -469.55914        27.19514        28.99014
C09                      7901.51615      -496.79915        30.29815
C10                     -1858.61614       112.70414        26.69614
C16                     19435.86714     -1213.51514        24.24714
C22                     14214.72813     -1575.57913        20.00213
C27                      4865.34416      -293.07616        36.00116
C28                     46125.05313     -2939.59813        18.26713
C36                    -36942.16014      2236.62514        24.48114
C37                     40218.06112     -2361.45412        16.31012
> 2022 11 18 11 33 26.7049986  0 27                      
G04                     47005.34513     -2682.24813        17.89513                                                                
G07                    -53989.95715      3053.18615        34.36615                                                                
G08                    -25225.79715      1474.97815        32.71215                   -139012.49511      1227.37111         7.00011
G09                     16471.78214      -942.59714        28.11414                     99048.51911      -575.18111         7.00011
G16                     32157.53415     -1785.77515        31.28615                                                                
G18                     35934.60416     -2045.00116        37.60316                                                                
G21                    -62349.54811      3548.91211        11.96111                                                                
G26                     44733.16915     -2541.56915        35.40615                    275598.20211     -1757.95411         7.00011
G27                     15699.97117      -898.56517        43.81717                     97475.43411      -531.77411         7.00011
R09                    -52211.04015      3060.50115        30.00515
R15                     28899.31015     -1700.99115        32.00915
R19                    -62231.58011      4083.80211        10.59111
R17                     43143.76716     -2502.21316        37.85116
R07                      3793.96115      -230.20615        30.22015
J02                     -3283.60215       176.28615        34.52415                    -17259.79211       250.18011         7.00011
J04                      5498.61315      -318.37515        32.51715                     32249.97615      -237.37415        32.27315
C01                      1510.70015       -87.68015        30.71115
C06                     18285.92414     -1079.56914        25.18314
C07                      -498.43614        26.36014        25.50514
C09                      8396.85214      -498.39814        26.88214
C10                     -1970.23914       111.44914        26.27214
C16                     20652.52613     -1216.27213        23.01913
C22                     15791.16213     -1579.29613        20.01513
C27                      5158.50316      -294.16816        36.04416
C28                     49065.57313     -2934.94713        18.93813
C36                    -39364.68813      2329.68613        19.25613
C37                     42579.06412     -2363.10212        17.49812
> 2022 11 18 11 33 27.7049985  0 28                      
G04                     49689.83212     -2683.23912        13.44012                                                                
G07                    -57042.09815      3051.52515        34.62015                                                                
G08                    -26702.08015      1474.86415        33.90215                   -140262.82511      1102.42811        12.21311
G09                     17413.46414      -942.50214        26.81614                     99605.81611      -692.69211         7.00011
G16                     33940.53516     -1784.63816        37.13416                                                                
G18                     37978.51816     -2044.25416        35.70216                                                                
G21                    -65896.53311      3548.62111        11.10011                                                                
G26                     47274.04616     -2541.82016        36.73116                    277337.71911     -1773.61511        12.06811
G27                     16600.28416      -899.09016        39.18116                     97992.95113      -545.14213        18.97913
R09                    -55269.40315      3059.74515        33.00415
R15                     30602.33715     -1704.14715        32.80715
R19                    -66307.52511      4077.61311         7.66211
R17                     45643.71815     -2503.44315        33.63715
R07                      4026.17816      -234.25516        35.51516
J02                     -3460.10616       175.84816        37.08616                    -17526.85411       136.57511         7.00011
J04                      5816.10314      -317.79614        28.60014                     32484.45314      -235.88114        28.04614
C01                      1598.00014       -87.51314        27.52414
C04                       324.27913       -81.83213        21.19813
C06                     19369.16513     -1075.06913        22.69113
C07                      -528.16515        25.78515        30.49415
C09                      8892.78714      -498.68314        25.38814
C10                     -2083.55014       112.32214        27.08414
C16                     21870.21013     -1218.65313        22.92713
C22                     17366.12013     -1567.38513        21.91913
C27                      5453.99315      -296.33015        35.43415
C28                     51996.01512     -2930.48312        13.60612
C36                    -41823.85712      2415.66212        13.92412
C37                     44940.95212     -2362.58912        15.30612
> 2022 11 18 11 33 28.7049985  0 28                      
G04                     52374.98712     -2681.32712        17.27712                                                                
G07                    -60096.73516      3054.51816        35.90616                                                                
G08                    -28181.10015      1475.24515        35.21215                   -141492.23011      1227.35211         7.16111
G09                     18354.87814      -940.84914        26.86114                    100225.16111      -573.67511         7.00011
G16                     35720.71616     -1784.43916        40.75016                                                                
G18                     40024.17016     -2045.97016        36.58316                                                                
G21                    -69441.91212      3546.68312        13.16812                                                                
G26                     49812.87016     -2542.69916        37.73216                    279154.98311     -1767.71011         9.62211
G27                     17498.44116      -897.40516        36.28116                     98536.11612      -545.20312        13.92712
R09                    -58332.86615      3063.12715        34.34515
R15                     32305.65916     -1703.67016        39.09916
R19                    -70378.27311      4075.20311        10.51011
R17                     48149.26416     -2505.57516        36.31716
R07                      4261.72715      -234.31115        35.06215
J02                     -3638.10315       178.20315        33.63015                    -17773.72411       250.16111         7.00011
J04                      6130.63215      -316.78015        29.66415                     32718.01215      -235.67515        30.90315
C01                      1685.38314       -87.58814        24.95314
C04                       400.85814       -78.05614        25.16814
C06                     20449.50214     -1077.38914        24.24814
C07                      -556.71815        27.87815        33.72315
C09                      9389.91814      -498.89814        26.97314
C10                     -2200.23414       114.16114        27.93114
C16                     23087.19013     -1214.70613        22.51613
C22                     18940.99813     -1571.37913        20.72013
C27                      5750.39115      -298.00515        35.38815
C28                     54924.38711     -2926.36411         9.64811
C36                    -44329.62011      2429.67911         8.59211
C37                     47302.77012     -2361.47112        15.00312
> 2022 11 18 11 33 29.7049984  0 28                      
G04                     55054.84713     -2681.33113        21.55613                                                                
G07                    -63156.45216      3058.33716        35.89116                                                                
G08                    -29655.88015      1474.26215        33.24115                   -142671.67711      1227.35211         7.00011
G09                     19297.28215      -938.08715        29.77915                    100776.38111      -692.69211         8.89711
G16                     37506.21916     -1784.34916        38.79916                                                                
G18                     42073.59516     -2047.77516        36.74316                                                                
G21                    -72985.22212      3542.75512        14.11412                                                                
G26                     52357.55115     -2543.71015        34.85015                    280892.37111     -1892.69111         9.28911
G27                     18397.63216      -897.33116        36.79516                     99085.88411      -558.22311        11.12011
R09                    -61399.46615      3064.61715        31.98715
R15                     34009.04415     -1702.61515        33.67415
R19                    -74450.83712      4073.46812        12.82812
R17                     50657.39215     -2507.07815        33.47515
R07                      4498.57315      -234.86015        31.01015
J02                     -3817.31315       179.96315        33.64315                    -17979.02811       250.16111         7.79511
J04                      6443.84515      -316.16615        33.29115                     32952.66215      -236.57615        32.00515
C01                      1773.25014       -87.97014        28.85314
C04                       482.49114       -82.26114        28.17614
C06                     21525.46814     -1074.41914        26.31814
C07                      -585.24415        28.22115        30.70115
C09                      9887.02414      -497.02414        27.69514
C10                     -2318.85515       116.85215        30.90215
C16                     24305.79313     -1217.13613        21.98513
C22                     20510.40113     -1569.51113        19.66213
C27                      6047.10816      -296.85516        39.61716
C28                     57849.39511     -2928.51011         7.00011
C36                    -46867.96311      2488.71811         7.00011
C37                     49664.92612     -2361.01812        12.75912
> 2022 11 18 11 33 30.7049983  0 27                      
G04                     57733.39113     -2678.87513        22.13713                                                                
G07                    -66218.60116      3059.51016        40.92016                                                                
G08                    -31130.24415      1475.20515        31.44315                   -143921.98512      1102.42812        14.67412
G09                     20234.61714      -938.76014        27.17014                    101395.18811      -573.69411         7.00011
G16                     39290.81217     -1784.45017        42.23717                                                                
G18                     44125.06015     -2049.37515        34.42415                                                                
G21                    -76526.10412      3541.52012        15.95112                                                                
G26                     54899.42715     -2541.83615        34.52515                    282704.09711     -1767.71011         7.02411
G27                     19298.40816      -896.66116        37.49616                     99690.58011      -552.14311         7.00011
R09                    -64463.99215      3064.45315        31.75915
R15                     35710.09715     -1700.67615        34.68315
R19                    -78519.01411      4069.12911         7.77711
R17                     53163.52715     -2508.68315        33.54615
R07                      4733.77616      -234.47816        36.90916
J02                     -3997.97915       181.32215        34.29615                    -18249.70311       136.57511         7.00011
J04                      6758.18615      -316.82515        31.96215                     33189.80615      -237.23615        32.37715
C01                      1861.04614       -87.76214        27.38114
C04                       563.49915       -82.52015        31.73315
C06                     22601.06814     -1073.91614        26.85314
C07                      -613.22515        28.72215        31.14215
C09                     10383.59614      -495.59014        29.22714
C10                     -2434.65815       117.81015        29.98815
C16                     25524.55813     -1215.10613        19.60113
C22                     22077.57213     -1565.73913        22.55913
C27                      6342.22416      -294.71616        36.22516
C28                     60771.65211     -2924.16511         7.00011
C37                     52025.54511     -2357.25411        12.16311
> 2022 11 18 11 33 31.7049983  0 27                      
G04                     60411.52013     -2677.24713        19.53213                                                                
G07                    -69277.47616      3058.61716        37.28116                                                                
G08                    -32603.32415      1473.02515        35.37915                   -145151.34211      1227.33311         9.62311
G09                     21171.78614      -938.74814        26.89414                    101945.91212      -692.69212        12.88412
G16                     41077.87116     -1786.13516        37.14016                                                                
G18                     46174.48816     -2050.10016        35.78516                                                                
G21                    -80064.41612      3537.43112        15.09112                                                                
G26                     57437.08115     -2539.20115        33.27615                    284440.97711     -1765.21211        12.02611
G27                     20194.06315      -896.89315        33.76415                    100242.34511      -573.05311        12.44811
R09                    -67528.76015      3064.77615        30.90315
R15                     37410.23016     -1699.55816        35.77516
R19                    -82581.62012      4064.03812        13.60712
R17                     55671.83015     -2508.16115        33.47115
R07                      4967.17016      -232.93616        37.37016
J02                     -4180.87915       181.10115        30.45215                    -18504.45611       249.03711         7.00011
J04                      7074.82115      -316.48115        30.38215                     33425.79914      -237.71614        27.68114
C01                      1948.85214       -87.83814        23.77414
C04                       644.70514       -82.84214        27.56314
C06                     23675.54814     -1072.99014        26.22614
C07                      -642.26016        29.38216        36.16516
C09                     10877.55715      -493.66815        32.99315
C10                     -2550.42415       118.42215        33.19015
C16                     26741.33213     -1214.25513        20.93813
C22                     23643.90212     -1566.53712        16.80212
C27                      6633.73215      -289.45615        29.94515
C28                     63690.50711     -2921.26911         7.00011
C37                     54388.07011     -2363.08211         7.00011
> 2022 11 18 11 33 32.7049982  0 27                      
G04                     63088.24513     -2674.86013        18.63713                                                                
G07                    -72334.76716      3057.94216        37.90316                                                                
G08                    -34076.45315      1472.82815        32.58515                   -146329.00711      1227.33311         7.00011
G09                     22108.80514      -940.50314        27.52414                    102565.61811      -573.71411        10.81011
G16                     42866.76116     -1785.87116        35.53316                                                                
G18                     48220.80215     -2047.67815        31.44515                                                                
G21                    -83600.93312      3536.13912        15.21912                                                                
G26                     59973.96316     -2538.68716        37.91416                    286250.89911     -1767.71011         9.52011
G27                     21090.43216      -895.93616        36.40316                    100850.77011      -569.78811         7.39611
R09                    -70594.49615      3063.99615        30.60315
R15                     39111.45216     -1700.09116        37.77616
R19                    -86642.64911      4065.24811         8.55611
R17                     58179.06115     -2507.90615        32.37615
R07                      5199.50916      -231.97916        36.24616
J02                     -4365.51015       180.66815        35.19915                    -18713.70211       252.25711         7.00011
J04                      7391.73115      -316.57515        30.04515                     33662.96814      -237.43914        27.90214
C01                      2036.84414       -87.87414        28.13414
C04                       726.27814       -83.12414        27.49314
C06                     24749.73414     -1073.85414        24.23514
C07                      -671.21315        28.30815        30.74615
C09                     11368.87114      -493.00914        29.38814
C10                     -2666.79615       118.38815        29.76815
C16                     27958.49413     -1213.25813        22.06513
C22                     25213.09813     -1568.03913        21.50813
C27                      6922.51515      -296.23115        33.61915
C28                     66606.49811     -2917.81711         7.00011
C37                     56752.89012     -2367.67512        12.73312
> 2022 11 18 11 33 33.7049982  0 27                      
G04                     65764.22813     -2676.67713        21.54913                                                                
G07                    -75390.29316      3056.48116        36.58016                                                                
G08                    -35548.11515      1471.06515        32.89315                   -147582.17711      1229.37711         8.11711
G09                     23048.48015      -942.25515        31.37415                    103119.00511      -692.69211        11.84611
G16                     44652.58616     -1783.86916        38.41116                                                                
G18                     50265.43815     -2045.84615        30.29915                                                                
G21                    -87139.64612      3540.05712        15.95112                                                                
G26                     62511.70215     -2537.01215        32.79915                    287995.20211     -1766.16411         9.27911
G27                     21987.23716      -896.63116        35.98216                    101411.71512      -576.36612        13.62312
R09                    -73657.45615      3062.46815        32.01715
R15                     40811.64816     -1700.10416        35.89616
R19                    -90704.48311      4062.90411         7.00011
R17                     60685.30316     -2506.40216        38.09416
R07                      5432.01016      -232.91316        37.26616
J02                     -4546.17815       181.26215        32.73615                    -18991.62411       136.57511         7.00011
J04                      7706.48115      -314.90015        34.09215                     33901.50614      -236.89314        27.20514
C01                      2124.69314       -87.87214        26.72414
C04                       807.78114       -83.03614        24.97314
C06                     25823.47614     -1072.75814        24.65214
C07                      -699.26514        29.48414        28.39414
C09                     11860.57415      -493.22515        30.86415
C10                     -2783.12415       118.66215        30.85815
C16                     29172.71414     -1213.72014        24.09914
C22                     26782.98013     -1568.68313        19.33213
C27                      7213.18016      -292.88316        38.71516
C28                     69517.65211     -2915.11811         7.00011
C37                     59119.27712     -2367.48912        12.51312
> 2022 11 18 11 33 34.7049981  0 26                      
G04                     68439.58913     -2676.68913        20.46913                                                                
G07                    -78449.36216      3056.06516        39.86416                                                                
G08                    -37019.11515      1470.08115        33.88815                   -148816.65911      1235.55911        12.44911
G09                     23989.61614      -943.25414        28.96714                    103736.50211      -578.36311         7.00011
G16                     46433.56316     -1784.01416        37.47016                                                                
G18                     52310.63515     -2045.80215        31.58215                                                                
G21                    -90680.03512      3542.61112        17.24812                                                                
G26                     65050.74416     -2539.80316        38.16716                    289810.72811     -1767.82411         7.00011
G27                     22885.43816      -898.10516        38.64816                    102030.46011      -577.02911         8.57211
R09                    -76717.84415      3060.39915        30.72815
R15                     42512.44016     -1701.77016        37.76416
R17                     63191.36415     -2506.52115        32.99315
R07                      5666.64716      -234.45116        39.62516
J02                     -4729.89215       181.45815        33.69215                    -19249.63112       257.21212        12.96112
J04                      8020.60815      -314.63715        32.00815                     34137.71714      -235.82214        29.46614
C01                      2212.43813       -87.90513        23.08913
C04                       889.52013       -83.24713        23.07913
C06                     26894.28914     -1073.82914        26.50714
C07                      -729.05815        30.32515        33.57315
C09                     12355.24215      -494.27615        31.32915
C10                     -2900.76915       118.17215        32.58315
C16                     30385.88214     -1213.02914        24.16614
C22                     28353.33613     -1570.18813        20.14113
C27                      7510.97315      -297.88815        35.26215
C28                     72423.15411     -2910.98711         7.00011
C37                     61486.68312     -2365.70512        15.63512
> 2022 11 18 11 33 35.7049980  0 25                      
G04                     71113.13113     -2677.47913        20.38513                                                                
G07                    -81506.05416      3059.52416        39.58916                                                                
G08                    -38490.98116      1471.05216        35.59316                   -149998.31211      1232.55411         8.03911
G09                     24930.13615      -941.77315        30.41615                    104287.10511      -692.69211         7.00011
G16                     48214.02716     -1784.04616        40.23016                                                                
G18                     54358.27915     -2046.89215        31.67815                                                                
G26                     67594.79316     -2544.05416        39.15516                    291560.98612     -1773.28712        14.70012
G27                     23785.02616      -900.00016        37.14016                    102599.17911      -585.41911        10.53111
R09                    -79777.22515      3061.29115        30.23715
R15                     44215.18516     -1704.34416        37.00516
R17                     65698.37415     -2506.40315        32.85215
R07                      5905.32216      -233.64616        36.96816
J02                     -4913.65215       181.07315        34.57015                    -19458.67211       257.21211         7.90911
J04                      8336.70815      -314.68115        32.18415                     34372.77914      -236.12314        28.93214
C01                      2300.57513       -88.26613        23.41213
C04                       971.27214       -83.01314        24.22514
C06                     27967.57614     -1075.48614        28.08614
C07                      -759.55815        31.64115        33.21315
C09                     12850.69015      -494.87115        31.72015
C10                     -3019.40215       118.25515        33.33415
C16                     31596.61413     -1210.81013        22.12013
C22                     29923.41513     -1569.76713        22.82013
C27                      7809.65016      -299.94316        37.63116
C28                     75322.50911     -2894.74011        10.52611
C37                     63854.31111     -2365.63611        11.18611
> 2022 11 18 11 33 36.7049980  0 25                      
G04                     73791.07913     -2677.82613        20.20213                                                                
G07                    -84565.35716      3061.60016        37.97016                                                                
G08                    -39962.49915      1471.19115        35.15215                   -151255.48011      1226.89111        11.07711
G09                     25871.58014      -941.66414        27.43914                    104905.36411      -576.01911         8.28911
G16                     49998.33216     -1785.38316        38.26016                                                                
G18                     56405.89215     -2047.43215        34.17515                                                                
G26                     70143.55916     -2545.77116        38.26816                    293380.73211     -1772.55011         9.64911
G27                     24687.42216      -901.93516        38.91316                    103214.65011      -584.19411        10.48811
R09                    -82839.40615      3065.55715        33.00615
R15                     45918.94116     -1704.02216        36.19116
R17                     68207.10315     -2506.75115        34.06815
R07                      6136.79015      -232.73015        35.06915
J02                     -5093.55416       180.11116        36.66516                    -19735.52712       136.57512        15.41312
J04                      8654.76115      -316.67015        34.15515                     34608.79515      -237.70415        30.78615
C01                      2388.57513       -88.05813        21.54213
C04                      1053.19014       -83.37114        28.18914
C06                     29045.13814     -1076.17614        27.70114
C07                      -793.76715        34.55915        33.27615
C09                     13343.50214      -495.29214        28.83214
C10                     -3139.88415       119.55515        31.24815
C16                     32805.73413     -1211.30313        22.85813
C22                     31493.11013     -1568.72413        22.58913
C27                      8108.85416      -299.71916        35.96516
C28                     78213.83211     -2887.57911         7.00011
C37                     66222.18011     -2362.50111         7.00011
> 2022 11 18 11 33 37.7049980  0 25                      
G04                     76471.30813     -2678.99313        19.21313                                                                
G07                    -87627.43316      3062.26616        39.79316                                                                
G08                    -41432.90115      1471.93315        32.16915                   -152486.22011      1236.10711         7.00011
G09                     26817.02314      -942.83814        26.84714                    105465.31411      -692.69211         8.78911
G16                     51784.20016     -1786.02316        35.98416                                                                
G18                     58453.70415     -2050.51915        34.16015                                                                
G26                     72688.92016     -2545.91816        37.15416                    295129.73911     -1772.55011         7.00011
G27                     25589.89616      -902.58116        39.48516                    103785.01911      -584.19411         7.00011
R09                    -85905.43115      3068.74315        33.83815
R15                     47623.90416     -1705.37816        36.21316
R17                     70718.02115     -2508.60515        34.87915
R07                      6367.54715      -232.62315        33.72215
J02                     -5270.53016       177.30316        35.64716                    -19998.33111       266.44611        11.36111
J04                      8972.46815      -317.53015        33.05515                     34846.06315      -236.93115        34.16315
C01                      2476.41714       -87.88714        23.91914
C04                      1135.19414       -83.82414        27.64114
C06                     30125.00814     -1075.36514        27.87014
C07                      -831.26815        36.68715        29.68815
C09                     13837.81014      -496.59914        26.86714
C10                     -3258.69514       119.67014        28.40014
C16                     34013.90713     -1210.29013        23.24913
C22                     33061.46513     -1566.95913        20.10413
C27                      8408.70016      -299.38416        35.80216
C28                     81096.09811     -2879.60911         7.00011
C37                     68582.88911     -2361.18811         7.00011
> 2022 11 18 11 33 38.7049978  0 25                      
G04                     79154.60713     -2680.39613        18.87813                                                                
G07                    -90689.99716      3060.15916        35.80616                                                                
G08                    -42902.29915      1469.95015        31.37915                   -153666.49911      1230.42011         7.00011
G09                     27763.83314      -944.82514        29.15314                    106087.51811      -580.23011         9.44111
G16                     53570.44416     -1785.21916        38.98416                                                                
G18                     60505.26315     -2050.36315        34.25015                                                                
G26                     75230.97015     -2542.57015        33.81115                    296950.55611     -1772.56911         7.00011
G27                     26491.25416      -901.61016        41.14016                    104401.69011      -584.21311         7.00011
R09                    -88974.40216      3069.29716        36.06616
R15                     49328.96215     -1706.06815        33.43015
R17                     73231.41616     -2510.92716        37.78716
R07                      6598.81815      -233.04315        31.51415
J02                     -5446.53716       178.57516        38.43416                    -20213.14411       261.40411         7.00011
J04                      9288.26215      -316.31015        33.61715                     35085.36215      -237.71415        33.84315
C01                      2564.57014       -88.02214        23.58414
C04                      1217.83215       -84.11915        31.38315
C06                     31200.01114     -1075.50014        25.84014
C07                      -869.90314        33.56214        25.83914
C09                     14335.22614      -496.91514        24.52414
C10                     -3376.49614       119.90614        25.49314
C16                     35220.36814     -1209.88214        24.90114
C22                     34630.44514     -1566.70614        28.23314
C27                      8706.19816      -298.70516        37.54316
C28                     83971.50411     -2872.57611         7.00011
C37                     70941.38811     -2357.50111         9.79311
> 2022 11 18 11 33 39.7049978  0 25                      
G04                     81834.88713     -2679.77913        20.67913                                                                
G07                    -93750.05517      3056.67717        42.52917                                                                
G08                    -44372.80515      1471.13015        31.67615                   -154928.70111      1102.42811         7.00011
G09                     28711.41515      -945.71015        30.38715                    106639.70511      -692.69211        10.09311
G16                     55354.43416     -1783.64516        39.75116                                                                
G18                     62557.88515     -2048.45115        32.43915                                                                
G26                     77768.64916     -2538.70316        35.51516                    298700.74011     -1772.56911         7.00011
G27                     27391.98416      -901.33416        38.09016                    104968.59111      -663.42411        10.69411
R09                    -92044.53915      3068.82915        34.46415
R15                     51031.48315     -1703.98915        33.63815
R17                     75744.66016     -2510.59316        39.69316
R07                      6832.24815      -234.67415        31.49215
J02                     -5625.16415       181.96115        35.00015                    -20502.36411       261.09611        12.19111
J04                      9600.84815      -315.60915        34.21815                     35325.07915      -237.71315        30.72515
C01                      2652.59113       -87.91513        21.35813
C04                      1300.32114       -83.72614        28.83314
C06                     32274.01614     -1074.20314        23.65514
C07                      -907.72115        30.01215        29.53315
C09                     14832.39914      -496.44614        24.54314
C10                     -3493.45414       117.73214        26.32614
C16                     36429.50013     -1211.20713        21.58913
C22                     36199.41514     -1567.15514        26.84114
C27                      9001.23216      -297.19316        38.74916
C28                     86841.18611     -2876.16311         7.00011
C37                     73300.58312     -2361.08112        15.21612
> 2022 11 18 11 33 40.7049977  0 25                      
G04                     84513.88913     -2678.67213        18.93013                                                                
G07                    -96808.20217      3055.48217        42.64217                                                                
G08                    -45843.17015      1470.09415        32.45115                   -156164.56311      1227.40911         7.00011
G09                     29656.81915      -946.04215        32.84715                    107257.31011      -574.89511         9.65811
G16                     57136.89316     -1782.61416        39.36816                                                                
G18                     64604.83315     -2047.45215        31.70315                                                                
G26                     80304.72415     -2534.33115        34.65915                    300518.72511     -1772.58811         7.00011
G27                     28292.21916      -899.98216        37.60816                    105579.47211      -579.88711         8.50811
R09                    -95114.05715      3067.36015        33.38715
R15                     52731.65215     -1700.13315        34.96015
R17                     78255.69516     -2510.19816        36.89616
R07                      7070.57716      -238.86516        35.84716
J02                     -5810.64215       186.75115        33.70315                    -20764.63411       261.07311         7.14011
J04                      9914.62515      -316.42715        30.74415                     35563.28015      -235.63315        30.45315
C01                      2740.25112       -87.02412        16.30612
C04                      1382.74114       -83.66014        24.45014
C06                     33345.35513     -1071.68213        21.38413
C07                      -941.07315        31.14315        30.72815
C09                     15326.95514      -494.10314        27.25514
C10                     -3610.49215       117.98415        30.16015
C16                     37641.22913     -1211.63813        20.46413
C22                     37767.82613     -1567.07113        23.13513
C27                      9297.45816      -295.87016        39.54316
C28                     89704.90111     -2869.31811         7.00011
C37                     75658.95812     -2360.57812        17.17812
> 2022 11 18 11 33 41.7049977  0 25                      
G04                     87193.37913     -2679.02513        18.78513                                                                
G07                    -99866.10116      3056.51216        37.89216                                                                
G08                    -47313.15515      1469.98815        33.90915                   -157344.21711      1227.40911         7.00011
G09                     30601.93216      -945.51216        36.07216                    107800.91911      -564.30911         7.46811
G16                     58915.99716     -1782.92116        36.68016                                                                
G18                     66649.06915     -2046.78415        33.86715                                                                
G26                     82839.85615     -2540.33215        32.96115                    302271.92612     -1772.58812        14.51712
G27                     29192.43216      -899.65216        36.25016                    106144.94711      -663.42411         7.00011
R09                    -98180.22416      3066.08416        36.32616
R15                     54431.80016     -1699.09816        36.58216
R17                     80762.80015     -2509.32015        33.09615
R07                      7311.14116      -240.12016        37.02216
J02                     -5997.16515       187.84215        32.48415                    -20978.09211       253.62911         7.00011
J04                     10228.25814      -316.01714        26.98514                     35797.66514      -234.13914        29.26614
C01                      2827.87014       -87.06314        23.50314
C04                      1464.99813       -83.29113        20.83213
C06                     34415.24814     -1070.64414        26.34514
C07                      -968.34516        29.42216        36.63116
C09                     15819.77814      -493.62914        25.45914
C10                     -3728.26315       117.97915        29.62315
C16                     38854.93914     -1213.28614        25.07614
C22                     39336.63114     -1568.21514        26.52414
C27                      9592.08816      -296.61316        36.39616
C28                     92563.32311     -2854.52411         7.00011
C37                     78019.92312     -2363.51912        13.11512
> 2022 11 18 11 33 42.7049976  0 24                      
G04                     89874.26613     -2679.98913        22.04713                                                                
G07                   -102925.08215      3056.86215        33.41315                                                                
G08                    -48783.38616      1470.59416        38.80516                   -158595.02312      1224.13212        14.77712
G09                     31550.80716      -944.39416        38.20216                    108419.01311      -567.71111         7.00011
G16                     60699.40716     -1784.53016        36.30516                                                                
G18                     68696.25915     -2049.77615        33.27515                                                                
G26                     85375.22315     -2544.70215        32.38015                    304090.98411     -1772.60711        10.48511
G27                     30096.28416      -902.43316        37.48616                    106755.47111      -580.61111         7.00011
R09                   -101243.51215      3065.86415        32.86915
R15                     56130.70115     -1699.88915        33.36615
R17                     83272.22416     -2512.06216        37.44816
R07                      7553.19516      -240.48316        38.68316
J02                     -6180.18915       183.93015        30.86215                    -21262.98911       259.96511         7.00011
J04                     10542.57915      -316.19815        29.95915                     36028.76414      -232.70314        26.00214
C01                      2915.85813       -87.32313        20.65913
C04                      1547.52614       -83.43214        23.57814
C06                     35484.73114     -1072.58714        26.90114
C07                      -999.79615        30.34315        34.00515
C09                     16314.62315      -494.42315        29.61615
C10                     -3845.51014       118.43114        27.58714
C16                     40069.50214     -1212.96614        24.67914
C22                     40908.88014     -1569.21214        25.89014
C27                      9887.21316      -299.18416        36.01716
C37                     80384.24011     -2366.55311         8.06411
> 2022 11 18 11 33 43.7049976  0 24                      
G04                     92556.33613     -2680.85913        20.27613                                                                
G07                   -105985.55416      3060.33116        39.23216                                                                
G08                    -50253.03016      1471.07316        36.32016                   -159812.83511      1211.99711        11.06911
G09                     32494.09316      -943.68316        37.66016                    108963.14011      -692.69211         7.00011
G16                     62482.76216     -1787.11016        39.93116                                                                
G18                     70749.57215     -2053.62915        34.33815                                                                
G26                     87912.97815     -2544.83015        30.70615                    305845.11111     -1772.60711        10.20811
G27                     31001.27115      -905.18115        35.19515                    107319.28912      -580.61112        15.78512
R09                   -104306.12915      3066.71415        31.90215
R15                     57832.95015     -1703.72715        33.61215
R17                     85787.57216     -2514.34116        39.78616
R07                      7793.15516      -239.87216        36.28716
J02                     -6359.66215       179.75015        34.36615                    -21523.44111       260.01311         7.00011
J04                     10857.81215      -318.27815        31.29015                     36257.08814      -233.18414        25.92514
C01                      3004.24314       -87.80214        23.62814
C04                      1630.24014       -83.70714        26.30814
C06                     36557.25414     -1074.63914        26.83114
C07                     -1032.55216        32.06316        35.52116
C09                     16810.65915      -495.05115        30.30215
C10                     -3965.42014       119.47914        27.97014
C16                     41284.53413     -1213.86313        20.41913
C22                     42479.45014     -1570.20714        25.67414
C27                     10189.95015      -303.23815        34.98515
C37                     82750.42511     -2367.50411        11.76211
> 2022 11 18 11 33 44.7049975  0 24                      
G04                     95238.34713     -2678.85813        22.21913                                                                
G07                   -109048.43516      3062.16416        36.11116                                                                
G08                    -51721.95915      1467.71515        32.93615                   -160982.69811      1218.16711         7.00011
G09                     33435.81515      -944.13615        35.05015                    109579.02711      -567.71111         7.00011
G16                     64273.67616     -1789.92116        39.08016                                                                
G18                     72807.33315     -2055.91515        33.70015                                                                
G26                     90460.42815     -2548.37015        30.98415                    307668.76411     -1772.62611        10.68711
G27                     31908.48716      -907.42316        38.73616                    107930.33112      -580.63012        13.29712
R09                   -107373.99815      3069.05015        32.07815
R15                     59540.44015     -1709.40815        33.01815
R17                     88303.15316     -2516.10916        37.33116
R07                      8031.77515      -241.92215        33.95015
J02                     -6538.73415       178.72215        33.95215                    -21736.47311       260.01311         7.00011
J04                     11175.88215      -320.40815        33.01915                     36496.74915      -240.00915        30.47215
C01                      3092.87214       -88.39214        27.92414
C04                      1712.91315       -83.53315        30.77215
C06                     37636.82714     -1077.01914        25.72114
C07                     -1062.83915        33.31815        32.11215
C09                     17308.52815      -495.97715        30.28415
C10                     -4087.40814       121.28814        28.48414
C16                     42502.44113     -1216.60413        20.60113
C22                     44050.41013     -1569.79613        23.32413
C27                     10497.24716      -306.45616        37.49616
C37                     85117.34612     -2368.65512        14.62312
> 2022 11 18 11 33 45.7049974  0 24                      
G04                     97920.77013     -2683.59913        23.48113                                                                
G07                   -112113.10915      3055.59015        35.40715                                                                
G08                    -53186.93415      1464.44015        33.96815                   -162220.08711      1216.04911         8.94511
G09                     34378.99015      -945.14415        34.37715                    110123.76811      -692.69211         8.80911
G16                     66065.38416     -1788.56616        37.10216                                                                
G18                     74866.86815     -2058.55915        33.28315                                                                
G26                     93011.10215     -2547.73615        35.33615                    309413.16811     -1763.04711         7.00011
G27                     32816.82817      -909.26417        42.67717                    108496.83612      -585.55912        13.64012
R09                   -110441.14516      3068.51116        37.63916
R15                     61250.01116     -1710.09316        35.71916
R17                     90820.91115     -2518.23515        34.83515
R07                      8273.46615      -243.87915        32.70615
J02                     -6718.54916       179.49816        38.95216                    -22021.85011       260.01311         9.83611
J04                     11494.47715      -319.32615        35.47715                     36734.49815      -239.25715        31.55015
C01                      3181.11114       -87.82114        26.37214
C04                      1796.40515       -82.95515        33.47315
C06                     38713.97314     -1078.74114        26.54114
C07                     -1094.31515        28.62115        29.60415
C09                     17808.49414      -496.90714        26.34414
C10                     -4211.97414       123.08214        24.79714
C16                     43722.82314     -1216.96114        27.15114
C22                     45620.87413     -1569.89213        23.42713
C27                     10805.95115      -306.18215        34.68915
C37                     87483.84611     -2366.37111        10.47211
> 2022 11 18 11 33 46.7049973  0 24                      
G04                    100603.71113     -2678.54613        22.78313                                                                
G07                   -115173.01216      3055.79216        36.52416                                                                
G08                    -54649.67915      1462.52315        33.93215                   -163432.74411      1218.47211         7.00011
G09                     35327.71715      -947.55615        31.74915                    110739.58011      -571.82711         7.00011
G16                     67851.38216     -1786.39016        39.65516                                                                
G18                     76927.77116     -2056.17616        38.70016                                                                
G26                     95557.00615     -2546.80415        32.61415                    311229.34111     -1767.71011         7.00011
G27                     33725.06716      -908.44316        40.60516                    109116.68311      -584.74611         8.58911
R09                   -113507.11316      3066.24216        36.50416
R15                     62959.69315     -1710.81715        31.89315
R17                     93342.64415     -2518.91415        33.41615
R07                      8520.99015      -246.33015        30.85215
J02                     -6899.93216       181.61716        36.94416                    -22282.71811       259.99411         7.00011
J04                     11812.26115      -318.43415        32.97215                     36975.03314      -241.34014        27.04014
C01                      3269.27714       -87.44314        24.33214
C04                      1879.82215       -82.95315        31.10315
C06                     39793.60114     -1080.90914        25.83314
C07                     -1125.02014        26.18114        25.65114
C09                     18306.13114      -497.76014        25.39014
C10                     -4333.31214       118.49014        26.31414
C16                     44939.71814     -1216.61614        25.20314
C22                     47190.70813     -1570.53913        21.34313
C27                     11109.17416      -304.45816        40.15816
C37                     89850.32811     -2365.16211        11.82011
> 2022 11 18 11 33 47.7049973  0 24                      
G04                    103284.96813     -2678.67413        18.88513                                                                
G07                   -118228.17916      3054.00416        40.28816                                                                
G08                    -56112.85815      1463.41215        33.27415                   -164597.81111      1216.05211         7.00011
G09                     36281.04315      -952.70515        32.58515                    111289.31311      -692.69211         7.61611
G16                     69633.53016     -1785.05616        37.96116                                                                
G18                     78980.49015     -2052.05315        33.03715                                                                
G26                     98101.00115     -2543.98815        30.81815                    312970.44211     -1767.27711         7.00011
G27                     34631.89215      -908.37515        35.15515                    109691.18612      -594.39312        13.33312
R09                   -116571.84216      3064.21116        37.89116
R15                     64668.07415     -1708.29415        33.58915
R17                     95864.32815     -2519.67115        31.58715
R07                      8771.69815      -248.81215        34.83515
J02                     -7083.91316       184.29916        35.72016                    -22496.15311       259.99411         7.00011
J04                     12128.27715      -315.91915        34.78715                     37215.93314      -240.65714        28.68814
C01                      3357.38014       -87.92514        26.45714
C04                      1963.53014       -83.04814        28.41114
C06                     40875.65014     -1080.78414        24.56814
C07                     -1151.04814        25.77014        28.92014
C09                     18804.65214      -498.61214        25.10214
C10                     -4452.39014       116.30214        25.83014
C16                     46155.27313     -1216.61813        21.99413
C22                     48764.22014     -1573.94014        26.75214
C27                     11410.21817      -303.71517        41.59517
C37                     92219.21711     -2368.03311         7.00011
> 2022 11 18 11 33 48.7049972  0 24                      
G04                    105966.81414     -2682.09614        26.74514                                                                
G07                   -121282.30416      3053.52016        36.32016                                                                
G08                    -57575.73115      1464.28815        34.38815                   -165837.03114      1092.67214        24.66514
G09                     37236.39115      -952.90515        34.77215                    111913.65111      -572.26511         7.00011
G16                     71419.66416     -1784.09716        38.75416                                                                
G18                     81029.66715     -2050.30615        31.73715                                                                
G26                    100641.63116     -2540.75616        38.34016                    314784.90411     -1767.71011         7.00011
G27                     35539.66315      -908.30315        34.40215                    110314.55311      -589.49111         9.80811
R09                   -119637.57616      3064.78116        38.82216
R15                     66373.12916     -1705.12016        38.35816
R17                     98382.04315     -2519.99015        30.36515
R07                      9020.12316      -248.48116        39.15716
J02                     -7269.88615       185.17415        31.42915                    -22780.22711       136.57511         7.00011
J04                     12442.77515      -315.81015        32.76815                     37453.65615      -238.75615        29.97715
C01                      3445.88414       -88.03914        24.56714
C04                      2046.95614       -82.95414        26.48214
C06                     41958.53014     -1079.91714        26.95814
C07                     -1179.81815        28.50015        33.51415
C09                     19301.93915      -497.20515        29.85215
C10                     -4568.54315       114.74215        29.85615
C16                     47370.39513     -1216.70213        22.98813
C22                     50339.49714     -1576.08114        27.30714
C27                     11710.53816      -300.47116        36.69816
C37                     94590.09511     -2369.03011         9.14811
> 2022 11 18 11 33 49.7049971  0 24                      
G04                    108650.07814     -2683.90214        24.30914                                                                
G07                   -124339.81215      3055.58415        33.64115                                                                
G08                    -59039.12616      1465.61916        39.73516                   -167053.40413      1217.65313        18.90813
G09                     38189.36216      -950.51116        37.39616                    112463.65211      -702.44811         7.00011
G16                     73204.97415     -1785.72215        34.60015                                                                
G18                     83078.33215     -2050.12915        30.04715                                                                
G26                    103180.59516     -2541.43216        38.31216                    316524.75813     -1767.71013        18.42013
G27                     36446.94716      -906.74416        37.28216                    110888.15511      -587.09811         7.00011
R09                   -122703.50416      3065.21716        36.25816
R15                     68074.69916     -1704.16816        39.54416
R17                    100900.14915     -2519.49515        32.80115
R07                      9265.88016      -247.43516        38.50216
J02                     -7454.43915       183.70515        34.14115                    -23043.29011       259.97511         7.00011
J04                     12755.81515      -315.65215        32.43915                     37688.82715      -236.98815        30.88415
C01                      3534.31114       -87.85014        28.05014
C04                      2130.57614       -83.17414        25.83414
C06                     43037.41014     -1076.05214        26.96014
C07                     -1214.47615        31.49015        32.70015
C09                     19798.49815      -497.47715        33.67715
C10                     -4682.90514       114.88214        29.14914
C16                     48586.40813     -1213.48313        19.06813
C22                     51913.10314     -1576.39114        25.37114
C27                     12010.14815      -298.77215        34.57415
C37                     96959.91811     -2367.87111         9.85311
> 2022 11 18 11 33 50.7049971  0 24                      
G04                    111333.35314     -2683.16614        25.10114                                                                
G07                   -127399.46916      3059.64216        38.40716                                                                
G08                    -60507.17216      1468.30216        37.26616                   -168168.49912      1216.58612        13.57612
G09                     39135.42716      -945.52416        39.25116                    113086.91211      -577.46711         7.00011
G16                     74987.83116     -1786.87116        36.01716                                                                
G18                     85128.46515     -2051.18915        30.43015                                                                
G26                    105719.99916     -2542.80616        36.28716                    318288.89412     -1767.72912        13.36812
G27                     37353.84816      -906.88916        36.90616                    111511.73611      -586.23311         7.00011
R09                   -125769.01516      3070.22516        37.84416
R15                     69777.77216     -1704.62616        36.63016
R17                    103420.64216     -2518.87616        35.71016
R07                      9514.29115      -246.31415        33.37115
J02                     -7638.39116       184.27516        35.66916                    -23257.18811       259.97511         7.00011
J04                     13068.58015      -314.94115        30.08515                     37921.97714      -236.31814        29.09914
C01                      3622.77114       -88.16914        25.28114
C04                      2214.16814       -82.92014        23.99314
C06                     44109.46515     -1073.72015        30.80415
C07                     -1247.36515        33.48015        34.98015
C09                     20294.14715      -496.17415        31.70015
C10                     -4797.47615       120.95115        32.37315
C16                     49803.88313     -1213.52913        22.44413
C22                     53489.56014     -1574.79814        27.08414
C27                     12313.64315      -300.02915        34.81915
C37                     99326.92611     -2360.05311         9.83111
> 2022 11 18 11 33 51.7049970  0 24                      
G04                    114015.11314     -2682.20114        24.36914                                                                
G07                   -130463.05716      3063.11916        41.01816                                                                
G08                    -61976.81415      1469.94115        35.30415                   -169383.44312      1092.67212        17.03712
G09                     40079.99016      -943.08616        38.65016                    113638.72011      -702.44811        11.41611
G16                     76776.33316     -1788.45816        37.76116                                                                
G18                     87184.74015     -2054.16015        30.98615                                                                
G26                    108267.18016     -2546.33716        38.76016                    320052.31111     -1767.72911         8.31711
G27                     38263.02416      -908.79416        38.86116                    112088.63011      -591.90911         7.00011
R09                   -128842.85516      3073.86816        38.96516
R15                     71486.24116     -1708.36616        36.87416
R17                    105942.32516     -2520.03616        37.47616
R07                      9762.76416      -243.76816        36.17016
J02                     -7820.40816       183.45116        37.02616                    -23541.68511       136.57511        10.91511
J04                     13385.37115      -317.39315        31.72115                     38156.21415      -237.56215        30.82715
C01                      3711.44814       -88.00514        24.13914
C04                      2298.27814       -83.70414        28.69214
C06                     45178.37415     -1072.08015        29.75915
C07                     -1281.47715        33.92315        32.33715
C09                     20787.73215      -493.63815        30.07715
C10                     -4918.96415       122.94615        32.56315
C16                     51017.49113     -1216.81213        23.47113
C22                     55064.95314     -1572.37014        27.46314
C27                     12613.19715      -301.04415        35.15815
C37                    101683.18411     -2357.58711         7.00011
> 2022 11 18 11 33 52.7049970  0 24                      
G04                    116694.26513     -2681.80713        22.74913                                                                
G07                   -133528.35017      3064.77517        41.78017                                                                
G08                    -63442.34016      1464.05516        37.65216                   -170603.02513      1216.44013        20.57713
G09                     41024.82916      -941.65616        37.56316                    114258.87011      -577.65811         7.00011
G16                     78564.54716     -1788.31416        37.28016                                                                
G18                     89242.78515     -2057.23415        32.00315                                                                
G26                    110817.69316     -2549.38616        38.87916                    321864.72811     -1767.72911         7.00011
G27                     39173.11516      -910.05616        37.65716                    112711.72811      -591.16811         7.00011
R09                   -131919.53316      3076.74216        37.35516
R15                     73197.01215     -1712.54515        34.82615
R17                    108461.83615     -2521.81615        34.92915
R07                     10005.70116      -241.91316        37.38216
J02                     -7998.81116       182.08016        36.04416                    -23805.08911       259.95611         7.00011
J04                     13706.82316      -320.17416        36.35316                     38392.30915      -239.65015        32.78115
C01                      3800.42915       -88.08715        31.10315
C04                      2382.46615       -83.35515        30.18815
C06                     46250.41915     -1077.08515        30.85015
C07                     -1315.57715        31.17815        32.14915
C09                     21279.03515      -495.03215        30.34615
C10                     -5047.84115       125.80215        30.41215
C16                     52234.69814     -1219.49614        25.02814
C22                     56641.03814     -1573.87514        26.57714
C27                     12916.73816      -306.75116        38.78016
C37                    104036.22011     -2351.00911         7.00011
> 2022 11 18 11 33 53.7049969  0 24                      
G04                    119376.22713     -2685.60713        20.31213                                                                
G07                   -136592.68316      3062.52016        41.26516                                                                
G08                    -64907.72816      1463.40216        36.35116                   -171822.70012      1221.49212        15.59412
G09                     41971.02415      -952.88515        33.04215                    114811.89611      -692.69211        11.03711
G16                     80354.10416     -1789.02016        37.80116                                                                
G18                     91306.13015     -2060.11315        30.58515                                                                
G26                    113366.13216     -2547.10916        37.73416                    323606.42911     -1770.09411         7.00011
G27                     40082.91516      -909.52116        39.11816                    113289.23011      -673.18011         7.00011
R09                   -134997.21016      3074.27216        38.15716
R15                     74909.81416     -1712.77416        35.97016
R17                    110983.54415     -2522.92715        33.19715
R07                     10248.07715      -242.52915        34.33615
J02                     -8180.10515       181.27315        34.44515                    -24020.04811       259.95611         7.00011
J04                     14028.12616      -319.29216        39.41116                     38629.86415      -239.99115        30.92315
C01                      3889.57015       -88.17815        29.80815
C04                      2467.67715       -83.74315        31.68515
C06                     47322.30415     -1075.46915        30.57015
C07                     -1347.05915        28.23615        29.79015
C09                     21770.26614      -493.86114        28.37414
C10                     -5175.06914       122.29714        27.07214
C16                     53454.10514     -1219.38614        26.19414
C22                     58213.46213     -1573.61713        22.61513
C27                     13228.10416      -310.24516        38.89316
C37                    106380.15911     -2344.85211         7.00011
> 2022 11 18 11 33 54.7049968  0 24                      
G04                    122063.12913     -2686.95213        19.22913                                                                
G07                   -139653.60117      3053.96717        44.56317                                                                
G08                    -66368.96215      1460.46715        32.94815                   -173047.49512      1229.52612        12.67012
G09                     42914.87715      -952.87315        34.98715                    115437.83111      -577.39111         7.00011
G16                     82145.80915     -1788.25115        35.00915                                                                
G18                     93367.10715     -2059.15315        30.87815                                                                
G26                    115909.77616     -2543.81416        36.65816                    325422.09711     -1767.76711         7.00011
G27                     40993.19516      -910.55316        39.42116                    113912.09111      -591.18711         7.00011
R09                   -138072.29515      3070.19615        34.60215
R15                     76624.04716     -1710.09216        35.74616
R17                    113505.39215     -2520.78215        34.76815
R07                     10493.76915      -246.61815        34.58115
J02                     -8364.40915       184.01815        31.58115                    -24311.84211       136.57511         7.00011
J04                     14345.03516      -316.80116        37.45816                     38867.53315      -237.92315        33.86315
C01                      3978.92215       -88.69715        30.22915
C04                      2552.18315       -83.55915        31.37715
C06                     48396.48414     -1076.29914        29.41814
C07                     -1373.96814        25.73614        25.86714
C09                     22265.78414      -494.91514        27.53914
C10                     -5304.28114       118.89714        26.92114
C16                     54671.05413     -1219.08613        22.58913
C22                     59783.85813     -1574.43313        23.19513
C27                     13543.11316      -310.97016        38.05716
C37                    108725.88211     -2346.73711         7.00011
> 2022 11 18 11 33 55.7049968  0 24                      
G04                    124754.42314     -2688.04814        24.18714                                                                
G07                   -142708.71817      3052.29917        42.54617                                                                
G08                    -67829.59915      1459.04815        35.48715                   -174274.09811      1226.92611         7.61811
G09                     43873.05515      -959.75815        34.05215                    115993.73611      -702.44811         7.00011
G16                     83933.01316     -1787.50916        36.97616                                                                
G18                     95429.49714     -2059.34914        27.94314                                                                
G26                    118449.31215     -2540.33615        33.23515                    327166.18611     -1892.69111         7.00011
G27                     41904.52016      -911.90516        38.70516                    114490.79111      -673.18011         7.00011
R09                   -141137.40215      3063.48415        35.05615
R15                     78330.76215     -1707.65015        31.56115
R17                    116026.32115     -2519.29615        33.96015
R07                     10743.94015      -248.95715        35.15015
J02                     -8549.23215       183.43915        32.70415                    -24590.18811       261.55611         7.00011
J04                     14658.86816      -314.81316        36.00416                     39103.04115      -236.09615        31.93815
C01                      4068.38115       -88.54715        31.21415
C04                      2635.54215       -82.50415        34.42615
C06                     49473.44714     -1077.67314        28.44614
C07                     -1400.04114        25.87614        28.79214
C09                     22763.47314      -495.69814        25.43714
C10                     -5429.88114       114.61414        28.03714
C16                     55885.04514     -1216.62514        24.58014
C22                     61359.84314     -1576.16914        26.33114
C27                     13850.85315      -308.58815        35.35215
C37                    111067.74811     -2339.96711         9.82211
> 2022 11 18 11 33 56.7049967  0 24                      
G04                    127442.24214     -2687.12514        26.70814                                                                
G07                   -145760.21116      3050.51116        40.86316                                                                
G08                    -69288.55916      1459.70316        36.73916                   -175501.14011      1230.46111         7.00011
G09                     44837.37016      -953.05516        37.89016                    116622.38811      -577.46711         7.20611
G16                     85715.93115     -1786.05115        34.12115                                                                
G18                     97489.75715     -2058.28615        30.37715                                                                
G26                    120990.87816     -2538.24616        38.60916                    328977.63511     -1767.78611        12.19111
G27                     42817.40716      -911.64416        39.21916                    115114.87211      -591.20611         7.00011
R09                   -144200.58415      3062.77415        35.17715
R15                     80035.27316     -1705.98716        35.90016
R17                    118546.70515     -2518.57015        34.06315
R07                     10996.40416      -251.79616        36.17016
J02                     -8732.76915       184.94815        32.58015                    -24805.42311       272.78011         7.00011
J04                     14971.36015      -312.47815        30.72615                     39335.73614      -233.56714        29.25214
C01                      4157.70514       -88.60814        26.71714
C04                      2717.84115       -82.30015        30.23115
C06                     50552.04114     -1078.92514        29.00114
C07                     -1427.23415        26.25815        31.43915
C09                     23264.18914      -497.00914        29.36914
C10                     -5554.15914       112.93414        25.72014
C16                     57099.93913     -1216.90313        21.44613
C22                     62938.62014     -1577.14614        24.63914
C27                     14156.42716      -306.33716        38.53616
C37                    113393.51511     -2346.59011         7.14311
> 2022 11 18 11 33 57.7049966  0 24                      
G04                    130126.65415     -2686.69115        30.78215                                                                
G07                   -148812.96316      3052.62516        38.67216                                                                
G08                    -70747.03516      1461.19716        37.82116                   -176727.54911      1232.68711         7.00011
G09                     45798.62216      -958.57616        37.97416                    117176.76311      -702.44811         7.00011
G16                     87503.18017     -1786.59817        42.35117                                                                
G18                     99546.52714     -2057.90414        27.23514                                                                
G26                    123529.80615     -2538.96215        35.48715                    330717.44011     -1882.93511        10.47511
G27                     43732.70916      -911.93316        38.57716                    115694.78611      -673.18011         7.00011
R09                   -147265.26016      3063.63516        37.15816
R15                     81741.05416     -1706.57916        38.32916
R17                    121066.40315     -2518.95415        32.99715
R07                     11249.95216      -252.96316        37.22416
J02                     -8916.11915       186.24015        30.45915                    -25094.71211       136.57511        10.07511
J04                     15281.50814      -310.24114        29.34214                     39567.47114      -231.18514        26.98114
C01                      4247.11614       -88.84014        25.68514
C04                      2799.83414       -82.47714        27.40814
C06                     51632.89514     -1078.62514        28.81914
C07                     -1456.28415        28.96115        33.28115
C09                     23761.37514      -497.08114        28.41014
C10                     -5668.79115       112.86115        32.04115
C16                     58315.22013     -1212.59913        20.46613
C22                     64516.15013     -1575.97813        23.46613
C27                     14461.18015      -304.92915        34.62515
C37                    115714.11711     -2326.60811         7.00011
> 2022 11 18 11 33 58.7049966  0 24                      
G04                    132808.53415     -2680.01915        34.77815                                                                
G07                   -151872.59016      3058.02816        39.47016                                                                
G08                    -72210.15215      1464.76715        35.34915                   -177966.49211      1237.13311         7.00011
G09                     46749.46316      -948.45416        35.88716                    117800.28911      -577.46711         7.00011
G16                     89291.19216     -1787.05916        37.10716                                                                
G18                    101602.56414     -2056.34414        27.33714                                                                
G26                    126068.78815     -2542.50815        34.20315                    332523.51811     -1761.80311         7.00011
G27                     44642.93916      -910.96816        36.96416                    116318.89411      -591.22511        11.19911
R09                   -150334.70416      3070.16116        37.59816
R15                     83449.59815     -1708.33615        35.20715
R17                    123587.48316     -2521.06816        38.36616
R07                     11503.52616      -250.89116        37.65616
J02                     -9103.49615       184.31415        33.82515                    -25364.63611       261.55611         7.00011
J04                     15594.52114      -315.75914        29.29214                     39799.31914      -229.68614        25.84014
C01                      4336.79414       -89.04614        25.91514
C04                      2882.08514       -82.83614        26.09214
C06                     52713.23314     -1076.85614        27.10514
C07                     -1488.13815        33.15615        30.91315
C09                     24257.49014      -496.47114        26.17714
C10                     -5784.16514       118.51014        27.46714
C16                     59527.93013     -1211.78813        22.41613
C22                     66090.13214     -1574.60414        27.04414
C27                     14770.46416      -305.37416        37.57316
C37                    118031.80211     -2324.98911         7.00011
> 2022 11 18 11 33 59.7049966  0 24                      
G04                    135489.35716     -2682.98516        37.08416                                                                
G07                   -154935.42316      3059.69916        39.47616                                                                
G08                    -73678.97415      1464.43115        34.07815                   -179202.95411      1236.06111         7.00011
G09                     47695.43315      -949.22115        35.06215                    118353.24611      -702.44811         7.00011
G16                     91079.75915     -1787.69515        32.22515                                                                
G18                    103655.90614     -2055.29414        27.26614                                                                
G26                    128610.84615     -2541.73915        31.74515                    334257.65711     -1882.93511         7.00011
G27                     45553.57516      -910.74316        37.24716                    116892.23511      -673.18011         7.00011
R09                   -153409.66215      3073.06915        33.67915
R15                     85159.49915     -1709.33215        32.60915
R17                    126107.99015     -2522.93915        33.38015
R07                     11754.93916      -249.76616        38.19516
J02                     -9292.53115       184.80815        32.55415                    -25579.96712       266.16712        12.67812
J04                     15905.91915      -312.31315        30.87715                     40031.84015      -231.48615        30.93315
C01                      4426.33714       -89.01814        23.76114
C04                      2964.06614       -82.53614        25.53214
C06                     53792.15914     -1076.13214        26.77714
C07                     -1526.50315        34.93415        32.86215
C09                     24752.57115      -495.68515        33.34415
C10                     -5899.76715       119.58315        32.61115
C16                     60740.29313     -1211.60013        22.00113
C22                     67662.41013     -1573.15613        23.24713
C27                     15077.40715      -307.83115        34.15015
C37                    120326.72311     -2318.81611        12.35011
> 2022 11 18 11 34 00.7049965  0 24                      
G04                    138169.64516     -2683.67916        36.61316                                                                
G07                   -157995.39516      3057.94716        41.05116                                                                
G08                    -75140.17116      1461.31216        38.01816                   -180433.66312      1236.06012        12.72012
G09                     48648.57315      -952.77415        30.54415                    118975.43311      -577.46711         7.00011
G16                     92870.01915     -1789.64115        35.09415                                                                
G18                    105707.26814     -2054.21414        28.16214                                                                
G26                    131151.18614     -2541.30414        28.46014                    336069.61611     -1759.11611         7.00011
G27                     46467.21416      -913.28716        38.39716                    117514.64311      -589.62411         7.00011
R09                   -156484.59316      3073.38116        35.55416
R15                     86869.70716     -1709.53816        35.78316
R17                    128631.41116     -2524.68116        37.12016
R07                     12008.94116      -252.78716        40.41316
J02                     -9476.36915       183.37715        34.64315                    -25869.48811       136.57511        10.12011
J04                     16222.17615      -315.39515        34.91315                     40266.30515      -233.87215        31.60915
C01                      4515.90913       -89.14713        21.87113
C04                      3045.33815       -82.74715        32.21015
C06                     54870.21314     -1076.11014        27.06614
C07                     -1559.10615        34.03815        29.85015
C09                     25249.00515      -496.99215        29.99615
C10                     -6014.73314       120.86114        29.35414
C16                     61954.17913     -1214.26413        22.18913
C22                     69234.10914     -1574.23814        24.26514
C27                     15384.63315      -308.48015        33.31615
C37                    122603.90711     -2277.99711         7.29911
> 2022 11 18 11 34 01.7049964  0 24                      
G04                    140856.80515     -2687.38415        34.34715                                                                
G07                   -161050.46216      3056.96316        39.97816                                                                
G08                    -76599.16315      1460.11315        29.86515                   -181673.05411      1233.26411        10.02311
G09                     49607.24515      -956.77215        31.76315                    119525.06911      -702.44811         7.00011
G16                     94659.12415     -1788.96515        31.31315                                                                
G18                    107760.03214     -2055.62214        26.15614                                                                
G26                    133687.27014     -2539.48014        28.60114                    337803.72111     -1892.69111         7.89011
G27                     47383.00015      -915.50115        34.28115                    118099.67311      -673.18011         7.58411
R09                   -159555.49116      3071.78316        39.87716
R15                     88579.17515     -1710.02315        33.84515
R17                    131158.95615     -2525.74715        34.55215
R07                     12264.96116      -255.25716        37.95916
J02                     -9661.62215       182.29815        31.10515                    -26137.05511       261.55611         8.71811
J04                     16537.65815      -316.70815        34.72015                     40500.19815      -235.76615        30.86715
C01                      4605.64313       -89.19113        22.55413
C04                      3126.66515       -83.06815        29.59115
C06                     55945.19814     -1074.87014        24.83014
C07                     -1589.32214        32.17714        29.00214
C09                     25748.09314      -497.79514        26.82714
C10                     -6136.67514       123.98614        28.11114
C16                     63171.79613     -1215.19913        20.55513
C22                     70804.76513     -1575.16313        22.00013
C27                     15695.72915      -310.77415        33.07015
C37                    124868.59211     -2281.04111         7.00011
> 2022 11 18 11 34 02.7049963  0 24                      
G04                    143545.85715     -2687.26415        34.92215                                                                
G07                   -164108.12416      3058.67816        38.24716                                                                
G08                    -78060.76015      1458.73415        30.61115                   -182912.97411      1233.65911        10.30511
G09                     50568.07414      -960.09014        28.61914                    120145.99711      -577.46711        11.42411
G16                     96446.31615     -1787.13715        33.49715                                                                
G18                    109815.95814     -2057.50414        24.87314                                                                
G26                    136226.43015     -2543.50115        32.08115                    339612.91911     -1767.71011        10.38511
G27                     48297.89415      -914.97815        34.76515                    118732.15011      -602.67711         7.00011
R09                   -162625.47516      3071.98116        39.40116
R15                     90287.69215     -1708.16115        32.53215
R17                    133687.15616     -2526.21716        35.86616
R07                     12519.96716      -254.74216        35.98516
J02                     -9846.95215       183.30015        30.68315                    -26353.99011       261.55611         7.00011
J04                     16852.29315      -316.57715        30.44415                     40734.52614      -237.07114        28.05814
C01                      4695.39513       -89.27813        20.38613
C04                      3207.74214       -82.98214        28.09414
C06                     57019.16614     -1074.95614        25.29214
C07                     -1620.18414        31.20014        25.61814
C09                     26249.27214      -497.29614        27.74914
C10                     -6260.25114       125.87614        26.45114
C16                     64390.73614     -1215.57314        24.04814
C22                     72378.92813     -1574.71713        21.52213
C27                     16006.53516      -310.08816        36.19816
C37                    127113.75411     -2270.37811         8.29611
> 2022 11 18 11 34 03.7049963  0 24                      
G04                    146231.90215     -2688.42915        33.72015                                                                
G07                   -167166.32716      3060.27416        36.45316                                                                
G08                    -79520.79916      1459.08716        36.30016                   -184161.47611      1236.28811         7.00011
G09                     51530.50114      -963.15214        26.46214                    120695.28611      -702.44811         9.65211
G16                     98235.86815     -1789.42815        34.20515                                                                
G18                    111871.29213     -2057.96813        22.53413                                                                
G26                    138765.53615     -2543.24715        32.19215                    341360.13511     -1882.93511         9.52711
G27                     49210.25016      -914.29916        36.35416                    119332.91011      -673.18011         7.00011
R09                   -165700.35416      3073.47716        38.03116
R15                     91996.13215     -1709.29415        33.47415
R17                    136214.01015     -2526.75715        32.75815
R07                     12771.93815      -254.30715        35.06115
J02                    -10033.27815       185.44215        30.56515                    -26645.63811       136.57511         7.00011
J04                     17166.07015      -317.09715        31.39215                     40969.88814      -238.41414        27.99514
C01                      4785.23713       -89.77313        21.86813
C04                      3288.69814       -82.58814        28.44014
C06                     58094.90515     -1075.22515        29.86315
C07                     -1651.15914        30.09714        25.99414
C09                     26745.11014      -495.31414        28.71814
C10                     -6382.14514       125.67014        24.97414
C16                     65605.47614     -1214.48514        23.74314
C22                     73950.87813     -1575.18013        18.16813
C27                     16313.87015      -311.27315        35.07115
C37                    129336.82211     -2247.63411         7.00011
> 2022 11 18 11 34 04.7049962  0 23                      
G04                    148919.53115     -2690.16715        32.40215                                                                
G07                   -170222.91715      3061.31515        33.66815                                                                
G08                    -80981.00315      1458.26415        34.43915                   -185415.40111      1244.97711         7.00011
G09                     52493.24414      -964.27714        25.26914                    121327.54611      -577.75311         7.00011
G16                    100026.30915     -1790.83715        33.29615                                                                
G18                    113930.19413     -2061.74913        21.60213                                                                
G26                    141308.99616     -2546.00616        37.01016                    343175.62711     -1768.94911        10.95011
G27                     50122.58215      -914.48815        34.43415                    119969.82411      -611.13711         7.00011
R09                   -168776.25016      3074.56716        40.41716
R15                     93709.07115     -1711.91315        34.80815
R17                    138741.42115     -2527.46615        34.20315
R07                     13023.27215      -253.89315        32.47115
J02                    -10219.79515       185.08615        29.88015                    -26912.94011       261.55611         7.00011
J04                     17480.22315      -316.37215        32.24015                     41208.03114      -238.60714        27.09314
C01                      4875.54713       -90.15113        19.63413
C04                      3369.32714       -82.50714        26.19114
C06                     59172.11515     -1076.93315        29.91915
C07                     -1682.61114        31.67314        29.32014
C09                     27239.32415      -494.23115        30.33415
C10                     -6505.67114       123.03914        26.87214
C16                     66820.05613     -1214.02613        22.55413
C22                     75523.02612     -1576.67812        15.33812
C27                     16626.83816      -313.00416        37.82916
> 2022 11 18 11 34 05.7049961  0 23                      
G04                    151609.28615     -2683.63715        31.93215                                                                
G07                   -173284.66515      3059.52015        30.39815                                                                
G08                    -82437.79015      1457.32515        33.81915                   -186677.28811      1254.12411         7.00011
G09                     53456.35514      -964.51514        24.20614                    121883.03211      -712.20411         7.00011
G16                    101815.58715     -1789.89715        35.28515                                                                
G18                    115991.49913     -2063.42113        22.70813                                                                
G26                    143851.30115     -2543.51215        34.31915                    344922.28513     -1772.22213        20.85313
G27                     51037.48415      -913.94415        33.71315                    120572.25211      -673.18011         7.00011
R09                   -171851.86816      3067.67616        36.78016
R15                     95423.70315     -1711.52115        35.20915
R17                    141269.69715     -2528.45115        30.14015
R07                     13275.34715      -254.30915        29.94915
J02                    -10404.10315       184.15515        34.22515                    -27126.36211       261.55611         7.00011
J04                     17795.00114      -314.53514        27.66914                     41449.09714      -238.96014        24.48214
C01                      4965.89113       -90.16313        21.18613
C04                      3449.80514       -82.44714        26.49614
C06                     60248.79414     -1078.31214        27.82714
C07                     -1714.99215        32.87415        31.43815
C09                     27731.78614      -494.34414        29.34314
C10                     -6626.48613       121.11813        22.78013
C16                     68036.97214     -1217.44814        24.96514
C22                     77101.09413     -1578.88513        19.46313
C27                     16938.69716      -311.49416        40.33316
> 2022 11 18 11 34 06.7049959  0 23                      
G04                    154298.17015     -2689.09515        30.38615                                                                
G07                   -176343.79915      3057.26915        31.35315                                                                
G08                    -83890.23815      1456.35115        35.33115                   -187941.34611      1262.85111         7.00011
G09                     54418.17213      -962.58013        19.85013                    122513.11011      -587.22311         7.00011
G16                    103605.55615     -1790.63815        34.75115                                                                
G18                    118053.48513     -2063.83013        17.97313                                                                
G26                    146390.69915     -2539.69115        34.98215                    346694.41412     -1771.40012        15.80212
G27                     51953.54015      -914.74515        33.28815                    121206.01211      -611.15611         7.00011
R09                   -174927.09816      3068.09916        37.26016
R15                     97137.55015     -1711.40815        32.43815
R17                    143797.83615     -2528.84015        29.58515
R07                     13527.74114      -256.17014        29.28314
J02                    -10586.65215       184.94215        31.03415                    -27407.61011       136.57511         7.00011
J04                     18109.19114      -314.09914        23.70514                     41688.93114      -238.07514        26.39614
C01                      5056.24112       -90.33112        16.13512
C04                      3530.26314       -82.16014        23.87614
C06                     61326.88015     -1079.07215        29.51215
C07                     -1747.41615        32.56015        34.58415
C09                     28222.79614      -495.54014        28.96014
C10                     -6743.59914       117.18914        25.24314
C16                     69253.40414     -1218.10214        26.50614
C22                     78682.27213     -1581.99613        19.58513
C27                     17248.36716      -309.92916        38.51916
> 2022 11 18 11 34 07.7049960  0 23                      
G04                    156987.55314     -2688.20914        28.20014                                                                
G07                   -179397.09816      3053.46316        39.70416                                                                
G08                    -85344.28815      1456.61715        34.33615                   -189211.42311      1263.59411         7.00011
G09                     55377.71813      -962.54813        22.22313                    123071.77911      -712.20411         7.00011
G16                    105394.18915     -1790.91615        32.48615                                                                
G18                    120115.06114     -2062.43014        27.75014                                                                
G26                    148926.22915     -2535.04115        32.20215                    348468.05311     -1771.75311        10.75011
G27                     52867.72715      -915.02515        33.53415                    121804.78112      -611.15612        14.91512
R09                   -177992.10716      3064.41816        40.82216
R15                     98851.87215     -1712.03015        33.22915
R17                    146327.50915     -2528.91915        31.44315
R07                     13784.63616      -258.80416        35.88616
J02                    -10769.71014       186.56314        29.46514                    -27667.19111       255.30611         7.00011
J04                     18425.49215      -314.57215        31.90715                     41922.63914      -236.42914        24.62814
C01                      5146.53514       -90.09014        23.77714
C04                      3610.80914       -82.12814        24.79114
C06                     62405.44314     -1079.27514        25.59414
C07                     -1777.79315        30.20115        30.79715
C09                     28718.67314      -496.32314        29.21714
C10                     -6858.29914       113.73814        23.80314
C16                     70467.64214     -1217.70714        28.16214
C22                     80262.93813     -1581.23613        22.69313
C27                     17559.43715      -310.87015        32.37815
> 2022 11 18 11 34 08.7049960  0 23                      
G04                    159676.02414     -2689.01714        28.07014                                                                
G07                   -182448.15716      3059.54916        41.32416                                                                
G08                    -86798.75615      1456.56715        32.11015                   -190503.65112      1267.04312        15.04012
G09                     56337.48213      -961.89713        22.13913                    123704.21411      -587.24211         7.00011
G16                    107180.06815     -1786.84915        30.74415                                                                
G18                    122175.44415     -2062.28115        33.05815                                                                
G26                    151459.37415     -2534.20815        32.11715                    350285.89111     -1771.82611         7.00011
G27                     53782.12815      -914.77415        34.53915                    122439.61511      -611.17511         9.86411
R09                   -181057.83017      3068.42817        43.12017
R15                    100565.98215     -1712.14015        30.65315
R17                    148856.96515     -2529.70115        33.15915
R07                     14046.93416      -258.24216        35.83416
J02                    -10955.60115       188.02815        29.95615                    -27879.27911       255.30611         7.00011
J04                     18743.77315      -315.11515        34.02815                     42155.51913      -235.43513        23.43513
C01                      5236.45213       -89.73413        20.52913
C04                      3690.30013       -80.64913        21.97013
C06                     63482.87714     -1078.78414        26.55414
C07                     -1808.01415        29.10815        31.65115
C09                     29215.17814      -496.36414        25.54714
C10                     -6971.98713       116.08813        22.70013
C16                     71686.57214     -1218.36114        26.85614
C22                     81842.50214     -1579.41814        23.62814
C27                     17871.27015      -311.78915        34.20715
> 2022 11 18 11 34 09.7049959  0 23                      
G04                    162365.05216     -2689.45716        35.90816                                                                
G07                   -185501.37316      3061.35716        40.18816                                                                
G08                    -88254.57116      1457.65916        36.57916                   -191812.34011      1280.21011         9.98911
G09                     57299.06114      -963.78414        24.81014                    124270.68212      -712.20412        13.68612
G16                    108965.10215     -1794.01515        30.40015                                                                
G18                    124238.55214     -2060.12614        28.95814                                                                
G26                    153995.36615     -2548.35015        30.86115                    352039.17111     -1772.25911         8.86911
G27                     54700.21315      -915.65615        33.95715                    123038.43412      -611.17512        14.53412
R09                   -184128.11816      3072.41316        41.04716
R15                    102279.38615     -1713.08315        31.00915
R17                    151386.34815     -2529.53315        33.30415
R07                     14303.43415      -257.70615        34.25015
J02                    -11140.40915       187.30815        30.13115                    -28159.11111       136.57511         7.00011
J04                     19059.68915      -315.13115        30.03615                     42391.84214      -236.28114        24.56514
C01                      5326.31413       -89.97413        20.60213
C04                      3769.71214       -80.87214        24.50714
C06                     64560.51514     -1078.28014        28.20714
C07                     -1840.89715        30.56815        31.05515
C09                     29712.29714      -496.59014        28.77014
C10                     -7088.37714       120.43014        25.94514
C16                     72903.16614     -1216.74314        27.85414
C22                     83422.25613     -1583.34413        21.26613
C27                     18182.93215      -310.18015        31.76115
> 2022 11 18 11 34 10.7049958  0 23                      
G04                    165053.30115     -2687.43115        33.19315                                                                
G07                   -188556.32715      3061.51915        33.94115                                                                
G08                    -89713.63416      1459.13016        36.62416                   -193137.86911      1302.82811         7.00011
G09                     58262.32014      -964.29114        23.66814                    124907.65911      -589.49111         9.98811
G16                    110751.50515     -1788.73815        34.94915                                                                
G18                    126298.60914     -2059.29214        26.43514                                                                
G26                    156536.09616     -2542.67516        36.38116                    353862.69811     -1772.11211         7.00011
G27                     55619.48815      -917.83715        32.41315                    123671.83211      -611.19411         9.48311
R09                   -187202.00516      3075.13816        36.88216
R15                    103993.26315     -1714.02415        34.67515
R17                    153914.13115     -2529.36415        31.48315
R07                     14559.14415      -259.00715        31.35415
J02                    -11323.83515       186.38815        31.28915                    -28418.66611       255.28711         9.23311
J04                     19375.16515      -315.21115        29.93615                     42628.19114      -234.91314        26.44714
C01                      5416.81113       -91.14713        21.26313
C04                      3849.39515       -80.73115        31.84415
C06                     65637.00415     -1076.39415        30.31415
C07                     -1874.98415        35.51515        30.25615
C09                     30206.49115      -496.08215        31.35515
C10                     -7205.44214       119.44214        28.10214
C16                     74116.15915     -1215.59515        30.92215
C22                     85002.02013     -1583.81113        21.25013
C27                     18496.20016      -311.97016        37.17016
> 2022 11 18 11 34 11.7049958  0 23                      
G04                    167738.05216     -2689.37416        38.56316                                                                
G07                   -191618.01414      3056.99914        29.42614                                                                
G08                    -91170.01116      1457.75616        36.83816                   -194487.79711      1324.95111        11.99111
G09                     59225.82813      -965.36113        20.77313                    125476.51211      -712.20411        11.05811
G16                    112543.74616     -1788.46216        36.46916                                                                
G18                    128359.07514     -2059.37514        24.62214                                                                
G26                    159083.02016     -2543.67016        35.92016                    355612.27911     -1774.39311         7.00011
G27                     56537.11716      -917.50816        36.26016                    124271.16311      -612.36011         7.00011
R09                   -190280.95115      3078.98115        32.15315
R15                    105703.99715     -1710.94315        35.40815
R17                    156441.37515     -2529.90015        29.58615
R07                     14816.38315      -261.30115        30.65615
J02                    -11507.75814       186.05414        27.61714                    -28630.59911       255.28711         7.00011
J04                     19689.45814      -314.58514        29.34214                     42865.11914      -233.44914        26.60714
C01                      5507.76614       -91.18214        23.77914
C04                      3929.01814       -80.79014        29.37714
C06                     66712.85914     -1075.86714        28.17114
C07                     -1914.05514        33.69514        28.75214
C09                     30701.05315      -495.90015        29.99115
C10                     -7326.36615       120.51715        31.06115
C16                     75332.01315     -1215.41215        31.25715
C22                     86585.09614     -1583.39014        26.00414
C27                     18812.04015      -314.13215        34.75715
> 2022 11 18 11 34 12.7049956  0 23                      
G04                    170431.86415     -2691.97615        34.43315                                                                
G07                   -194677.26215      3048.39915        33.01115                                                                
G08                    -92624.80016      1454.46716        39.35516                   -195859.60212      1349.43612        12.97312
G09                     60190.11913      -967.18613        17.90613                    126115.39711      -589.73911         7.00011
G16                    114333.03415     -1786.66215        32.31315                                                                
G18                    130416.82313     -2058.83013        22.48013                                                                
G26                    161623.17815     -2541.33415        35.43815                    357428.92411     -1768.32011         7.00011
G27                     57455.82615      -917.80715        34.39915                    124907.95111      -611.89911         7.00011
R09                   -193356.08216      3061.83516        38.82216
R15                    107411.10016     -1708.71616        36.51816
R17                    158968.21815     -2530.00015        29.77415
R07                     15077.95515      -264.30715        31.58115
J02                    -11693.62215       185.18015        31.90715                    -28910.32411       136.57511         7.00011
J04                     20004.25115      -314.56815        32.84015                     43101.63614      -232.39414        25.26114
C01                      5598.66713       -91.24813        20.67713
C04                      4008.49314       -80.50014        26.77614
C06                     67790.00814     -1076.16314        29.46514
C07                     -1953.34915        35.00815        30.83515
C09                     31200.82615      -496.45415        29.91015
C10                     -7443.60114       119.60814        29.10914
C16                     76545.89115     -1215.30415        29.52715
C22                     88170.32914     -1584.71114        25.70014
C27                     19129.99315      -313.77115        33.46815
> 2022 11 18 11 34 13.7049956  0 24                      
G04                    173126.17316     -2692.41616        37.35116                                                                
G07                   -197733.70316      3058.25616        40.03916                                                                
G08                    -94076.57016      1453.44016        38.27316                   -197257.07111      1365.25211         7.92211
G09                     61156.89413      -969.42113        20.14613                    126685.23911      -712.20411         7.00011
G16                    116125.26415     -1791.84915        30.27315                                                                
G18                    132473.07213     -2061.22013        22.50813                                                                
G26                    164162.29015     -2541.88115        35.11615                    359170.02611     -1764.69311         7.00011
G27                     58374.92216      -918.30716        35.75016                    125513.53311      -620.41111        12.17311
R09                   -196425.77215      3067.08815        32.85015
R15                    109118.86415     -1709.81515        32.62815
R17                    161495.77014     -2529.97214        28.01114
R07                     15342.87715      -266.38715        31.38615
J02                    -11880.44515       184.96215        30.74315                    -29169.87711       255.26811         7.00011
J04                     20317.92515      -314.87215        29.53915                     43337.97614      -233.51514        23.73414
C01                      5689.72813       -91.48013        22.03613
C03                       159.75014      -101.46314        27.98314
C04                      4087.76514       -80.18814        23.69714
C06                     68865.82415     -1075.82415        30.76015
C07                     -1987.30315        33.21615        30.16015
C09                     31696.96415      -496.88815        30.97015
C10                     -7562.73814       119.45414        28.10514
C16                     77759.26215     -1216.08915        33.20515
C22                     89754.65213     -1582.42613        22.59713
C27                     19444.30315      -313.36415        31.39315
> 2022 11 18 11 34 14.7049955  0 24                      
G04                    175814.97915     -2691.19115        32.86315                                                                
G07                   -200792.19915      3053.80415        31.89115                                                                
G08                    -95529.97816      1452.59816        36.05416                   -198679.95811      1388.44111         7.00011
G09                     62125.87614      -969.11114        25.11214                    127329.26411      -589.26211         7.67011
G16                    117920.63615     -1793.49915        30.70615                                                                
G18                    134535.71813     -2062.25913        21.50313                                                                
G26                    166705.82716     -2542.78716        39.08116                    360986.04911     -1767.71011         7.00011
G27                     59293.39115      -919.16515        33.17515                    126154.55411      -615.57711         7.12111
R09                   -199488.55214      3063.26714        29.44414
R15                    110832.58515     -1713.30215        34.51915
R17                    164025.51615     -2532.79515        33.62215
R07                     15608.44814      -268.68914        29.43614
J02                    -12066.24115       185.91915        32.03115                    -29381.92611       255.26811         7.00011
J04                     20632.55015      -313.88815        32.34015                     43572.04114      -234.40014        29.11014
C01                      5780.47013       -90.38313        21.61513
C03                       286.50415       -88.07315        32.24015
C04                      4167.00914       -80.18314        23.80114
C06                     69938.20215     -1075.54215        33.59215
C07                     -2017.09414        31.69414        28.63514
C09                     32190.75015      -497.33015        31.13215
C10                     -7681.72614       120.85414        25.77214
C16                     78972.89415     -1217.10115        34.43615
C22                     91338.68613     -1583.72613        21.46313
C27                     19757.97415      -312.92515        31.42015
> 2022 11 18 11 34 15.7049954  0 24                      
G04                    178503.32515     -2690.18515        30.36915                                                                
G07                   -203844.66615      3054.23115        34.04515                                                                
G08                    -96985.30316      1452.30316        35.78116                   -200140.79311      1409.23011        10.82411
G09                     63093.69514      -968.46314        28.13014                    127904.42312      -598.12112        16.31012
G16                    119716.99915     -1793.32715        31.13615                                                                
G18                    136599.57813     -2064.41113        19.77113                                                                
G26                    169247.83616     -2542.70316        37.71316                    362728.70911     -1892.69111         9.26711
G27                     60212.66115      -919.58315        32.40615                    126764.76211      -619.95111         7.00011
R09                   -202545.92214      3060.47414        28.48614
R15                    112550.41115     -1713.86415        33.49515
R17                    166559.24115     -2533.84115        34.59315
R07                     15876.05415      -270.08115        29.57815
J02                    -12253.55215       187.20815        30.69015                    -29661.65911       136.57511        12.49711
J04                     20946.25916      -313.69616        39.87816                     43807.07315      -235.68215        34.80515
C01                      5870.49913       -89.95013        21.39713
C03                       378.51215       -87.47815        29.94715
C04                      4246.29514       -79.88814        28.43014
C06                     71016.48215     -1079.00215        33.63215
C07                     -2044.00214        29.98714        24.89814
C09                     32688.40415      -497.67115        31.56115
C10                     -7799.17714       119.74714        25.34214
C16                     80189.65016     -1217.05816        35.86616
C22                     92925.75413     -1584.26713        19.87213
C27                     20071.61215      -312.93715        32.87715
> 2022 11 18 11 34 16.7049953  0 24                      
G04                    181194.48515     -2690.15315        35.44315                                                                
G07                   -206897.41316      3053.76616        37.37316                                                                
G08                    -98438.51116      1452.96916        38.09916                   -201625.42111      1449.57011        12.24111
G09                     64061.00114      -968.25314        25.26014                    128547.66011      -594.75011        11.25811
G16                    121511.39815     -1790.93715        35.19815                                                                
G18                    138664.89113     -2066.04513        22.42213                                                                
G26                    171787.08416     -2539.65816        36.56816                    364542.99711     -1767.72911         7.00011
G27                     61133.32216      -920.68716        36.34616                    127405.55211      -619.52111         7.00011
R09                   -205606.16315      3060.50315        31.41015
R15                    114262.94015     -1713.33315        33.33615
R17                    169094.80315     -2535.19115        35.44815
R07                     16146.89715      -272.15315        35.02015
J02                    -12441.16915       187.47215        34.36515                    -29921.23611       255.24911         7.44511
J04                     21257.96516      -312.71316        38.33616                     44041.31915      -235.51915        34.85515
C01                      5960.19114       -89.73714        27.99914
C03                       469.70615       -86.84315        30.99415
C04                      4325.63414       -80.21214        27.88314
C06                     72095.76515     -1078.70015        30.83515
C07                     -2072.90614        29.69014        28.38214
C09                     33187.03315      -498.59915        33.10515
C10                     -7917.15615       118.49215        31.96715
C16                     81406.57615     -1217.03415        35.04715
C22                     94512.00313     -1584.07213        19.92913
C27                     20385.52516      -314.02916        36.90216
> 2022 11 18 11 34 17.7049953  0 24                      
G04                    183885.32416     -2689.14016        40.45316                                                                
G07                   -209950.33516      3053.76116        39.07616                                                                
G08                    -99892.09616      1453.66516        39.77616                   -203132.76811      1477.29411         7.18911
G09                     65026.41714      -966.95114        27.42914                    129122.03011      -596.18111         7.84611
G16                    123303.19816     -1790.90216        38.29116                                                                
G18                    140728.93514     -2065.01814        24.82914                                                                
G26                    174326.10415     -2540.20115        31.60915                    366284.92611     -1892.69111         7.00011
G27                     62056.17916      -922.07116        38.30116                    128015.05212      -616.54712        12.68312
R09                   -208669.15916      3065.71916        39.15216
R15                    115973.24615     -1713.51915        33.64315
R17                    171630.34215     -2536.85915        34.04815
R07                     16417.96516      -271.93916        37.29816
J02                    -12628.19116       187.17616        37.26216                    -30133.35911       255.24911         7.00011
J04                     21570.14515      -311.96415        34.54515                     44274.32315      -231.63715        32.66015
C01                      6049.34914       -88.98014        27.03514
C03                       559.70115       -86.23115        34.95015
C04                      4404.81514       -80.23814        25.59114
C06                     73172.80615     -1077.58515        31.50615
C07                     -2101.68215        30.63315        29.97715
C09                     33684.89415      -498.36715        30.95715
C10                     -8036.10915       118.27615        33.79415
C16                     82621.32815     -1216.24015        31.85615
C22                     96095.46813     -1584.79213        21.86013
C27                     20699.41316      -314.72016        37.64316
> 2022 11 18 11 34 18.7049953  0 24                      
G04                    186573.85116     -2685.23116        37.83116                                                                
G07                   -213002.98616      3052.63716        35.78516                                                                
G08                   -101347.98116      1456.02916        38.51516                   -204660.77411      1500.27411         8.10011
G09                     65991.21514      -965.50514        28.92014                    129764.58711      -595.98911         7.00011
G16                    125093.73316     -1791.23316        36.24416                                                                
G18                    142793.44814     -2064.84114        23.78614                                                                
G26                    176866.12215     -2540.32915        30.98715                    368096.47911     -1767.74811         7.85011
G27                     62978.62616      -922.45016        38.83616                    128663.70911      -617.00611         8.05411
R09                   -211738.63916      3070.53216        37.59416
R15                    117686.85815     -1714.17215        33.94815
R17                    174165.89515     -2538.35015        33.93415
R07                     16688.80215      -272.29315        35.03015
J02                    -12815.72316       187.80816        38.25716                    -30413.03911       136.57511         7.00011
J04                     21880.31415      -310.42615        32.56815                     44504.99815      -230.93715        30.21615
C01                      6138.13114       -88.03514        25.61614
C03                       649.13315       -86.42215        33.16415
C04                      4484.11714       -80.19314        24.23014
C06                     74246.71915     -1075.21815        31.72315
C07                     -2130.41415        32.00815        30.50615
C09                     34180.17815      -495.18915        31.90915
C10                     -8156.18815       119.07915        32.07115
C16                     83834.48215     -1213.32415        33.62615
C22                     97680.01013     -1585.02613        22.36113
C27                     21014.72516      -315.82916        38.99516
> 2022 11 18 11 34 19.7049953  0 24                      
G04                    189261.75415     -2686.20315        30.94615                                                                
G07                   -216052.24816      3049.22316        36.37616                                                                
G08                   -102805.31515      1457.40315        34.77615                   -206215.12211      1520.83511         7.00011
G09                     66955.93315      -964.35715        33.82615                    130338.08011      -596.04411         7.00011
G16                    126884.51015     -1791.10215        33.25815                                                                
G18                    144859.11213     -2066.85913        22.60813                                                                
G26                    179409.24215     -2541.53615        32.73915                    369843.74812     -1771.70112        16.66812
G27                     63902.35315      -923.39715        34.76015                    129282.67211      -682.93611         7.00011
R09                   -214812.09515      3073.54715        31.91415
R15                    119402.35016     -1714.37816        36.45216
R17                    176701.96315     -2539.89915        32.57915
R07                     16961.74715      -271.03015        30.94315
J02                    -13002.29315       186.04515        34.74515                    -30672.56911       255.23011         7.00011
J04                     22188.04215      -311.59315        31.10415                     44735.32014      -229.37914        26.23714
C01                      6226.75513       -88.04813        23.13513
C03                       738.15214       -86.46314        28.91214
C04                      4563.08813       -79.76813        23.17813
C06                     75318.81215     -1073.45515        31.36515
C07                     -2161.21314        32.12514        27.88714
C09                     34672.80914      -493.42814        29.03814
C10                     -8278.24215       120.17415        32.70315
C16                     85046.36915     -1213.16015        32.36615
C22                     99263.53313     -1591.41613        22.22013
C27                     21331.58215      -317.67815        32.30115
> 2022 11 18 11 34 20.7049952  0 25                      
G04                    191952.31814     -2692.65414        27.55714                                                                
G07                   -219099.98216      3049.75416        36.83516                                                                
G08                   -104257.60915      1453.10315        34.11315                   -207800.97411      1543.12911         7.00011
G09                     67917.05716      -965.42516        36.00416                    130982.06611      -593.53111         7.00011
G16                    128676.75015     -1793.36415        34.08315                                                                
G18                    146926.44213     -2067.04913        19.31913                                                                
G26                    181950.51615     -2541.63915        35.30515                    371662.08012     -1772.22612        12.88912
G27                     64826.37815      -924.07015        34.39615                    129933.26911      -625.82911         7.00011
R09                   -217889.46914      3076.98114        29.00214
R15                    121117.76416     -1714.80816        36.33616
R17                    179241.19115     -2541.29315        32.66115
R07                     17234.03014      -269.75414        26.67014
J02                    -13189.80115       186.59215        35.22115                    -30885.29711       255.23011         7.00011
J04                     22500.67714      -312.50314        28.80414                     44967.00913      -227.76513        22.16213
C01                      6315.71513       -88.54113        22.18513
C03                       826.79714       -86.29514        25.75714
C04                      4642.04213       -79.84213        20.85113
C06                     76389.47715     -1073.00415        31.35815
C07                     -2196.45414        32.74114        26.94714
C09                     35165.77814      -493.52614        26.89414
C10                     -8401.37515       119.07315        32.01715
C16                     86258.44515     -1214.74215        32.05415
C22                    100857.25613     -1592.24613        19.86913
C27                     21650.36115      -319.20915        34.52415
C36                     -9270.46713      1941.45513        17.67013
> 2022 11 18 11 34 21.7049951  0 25                      
G04                    194646.08114     -2696.06414        28.80914                                                                
G07                   -222151.06415      3051.01615        34.23115                                                                
G08                   -105707.30515      1448.55315        34.30915                   -209413.64511      1575.02711        10.71911
G09                     68883.42115      -965.22215        30.73515                    131558.83511      -712.20411        12.07911
G16                    130469.00815     -1791.90815        33.12415                                                                
G18                    148995.41313     -2066.11013        18.45913                                                                
G26                    184486.61715     -2538.80515        34.06715                    373408.64611     -1892.69111         7.83711
G27                     65750.33315      -924.15815        31.58815                    130555.34211      -682.93611         7.00011
R09                   -220968.72114      3079.12314        24.90414
R15                    122829.63815     -1713.33215        34.16815
R17                    181780.84116     -2540.44716        36.76116
R07                     17502.79114      -269.22914        26.22414
J02                    -13379.37215       190.36415        34.31615                    -31161.63911       136.57511         7.17011
J04                     22813.35915      -313.49515        30.29615                     45199.43813      -233.83513        18.92513
C01                      6404.98113       -88.87413        18.70913
C03                       913.92715       -86.38415        29.85015
C04                      4721.29112       -80.20612        16.97712
C06                     77461.55014     -1073.40614        29.36114
C07                     -2231.84414        34.08614        24.15214
C09                     35664.91014      -496.69514        27.01814
C10                     -8520.09015       119.26215        31.24515
C16                     87473.01615     -1218.86015        33.86915
C22                    102454.80213     -1595.97113        17.65813
C27                     21968.02916      -318.68416        39.01116
C36                    -11217.13712      1947.43612        13.19512
> 2022 11 18 11 34 22.7049951  0 25                      
G04                    197343.63216     -2691.74516        37.34116                                                                
G07                   -225201.40816      3051.98216        35.62316                                                                
G08                   -107156.73116      1449.69116        38.39016                   -211047.99011      1603.62811         7.00011
G09                     69851.82815      -967.34515        31.77115                    132200.27912      -596.02712        12.58512
G16                    132255.90616     -1789.14916        37.14516                                                                
G18                    151063.16813     -2065.65513        22.67713                                                                
G26                    187026.30815     -2537.51915        35.30715                    375224.13311     -1767.97711         7.00011
G27                     66671.45716      -923.83916        37.26716                    131206.48711      -630.17311         7.77611
R09                   -224046.04815      3072.58715        33.43415
R15                    124541.60616     -1713.28016        37.76316
R17                    184320.32515     -2539.19115        34.72615
R07                     17776.08415      -272.74815        31.75315
J02                    -13568.01216       190.02016        36.96216                    -31405.66511       255.87811         7.00011
J04                     23125.44414      -312.88614        27.71814                     45426.38012      -227.58212        14.50812
C01                      6494.15313       -88.93713        22.88013
C03                       999.78215       -86.18915        30.61415
C04                      4800.59713       -80.45413        19.84613
C06                     78535.03615     -1075.68015        30.00215
C07                     -2263.75714        32.65314        28.70914
C09                     36163.90615      -498.89115        30.89115
C10                     -8638.91614       119.52314        27.96614
C16                     88691.31915     -1216.84715        35.01915
C22                    104053.60112     -1597.54012        14.23312
C27                     22286.00616      -318.56416        40.03716
C36                    -13166.71011      1946.08911         8.14311
> 2022 11 18 11 34 23.7049950  0 25                      
G04                    200039.94916     -2692.15516        39.45416                                                                
G07                   -228251.83916      3050.44716        38.06116                                                                
G08                   -108607.27716      1450.63616        38.64916                   -212712.97311      1630.78111         7.00011
G09                     70819.61914      -968.03814        29.25714                    132766.98311      -593.48711         7.53411
G16                    134046.18216     -1791.44616        40.08816                                                                
G18                    153130.10813     -2067.33313        17.72513                                                                
G26                    189566.56215     -2539.67615        34.91015                    376974.10411     -1882.93511         7.37311
G27                     67596.12316      -924.36516        38.19716                    131833.59512      -682.93612        13.91112
R09                   -227114.85216      3068.15716        36.26516
R15                    126255.96116     -1714.68616        37.30016
R17                    186857.86316     -2539.71516        35.55816
R07                     18051.38615      -275.38115        32.24615
J02                    -13755.64316       190.03816        38.59716                    -31606.35711       251.30511         7.00011
J04                     23437.11914      -311.87314        24.86914                     45652.57912      -209.64112        17.23312
C01                      6583.18914       -88.64414        23.64614
C03                      1084.48015       -85.72915        34.13415
C04                      4879.97313       -80.50113        21.68113
C06                     79610.70415     -1075.83215        31.63615
C07                     -2296.12415        32.08815        29.98815
C09                     36662.76815      -500.12515        31.03315
C10                     -8759.14715       118.78315        33.86415
C16                     89906.87715     -1216.74115        34.67315
C22                    105654.43712     -1597.52512        13.09812
C27                     22603.60916      -319.29116        39.86316
C36                    -15118.98611      1948.77211         7.00011
> 2022 11 18 11 34 24.7049949  0 25                      
G04                    202727.36616     -2687.45516        38.11416                                                                
G07                   -231302.29516      3049.29416        35.58716                                                                
G08                   -110058.34016      1451.40116        37.86816                   -214404.86711      1656.67711         7.00011
G09                     71788.22014      -968.56514        28.13614                    133402.60711      -592.80611         9.15011
G16                    135839.89316     -1793.10416        36.43416                                                                
G18                    155201.58313     -2071.42613        18.77913                                                                
G26                    192106.30715     -2542.67215        34.08615                    378792.63011     -1767.99611         7.00011
G27                     68522.86016      -926.22016        39.69816                    132485.22012      -630.19212        14.54412
R09                   -230178.67915      3065.55815        33.37715
R15                    127971.92716     -1716.01716        36.78316
R17                    189395.74015     -2541.95015        34.40015
R07                     18326.91315      -275.72415        31.74915
J02                    -13943.68616       188.38916        38.32116                    -31857.34811       146.33111         7.00011
J04                     23749.89113      -311.71313        21.99213                     45879.56413      -229.45213        20.39113
C01                      6672.12213       -88.62613        18.94713
C03                      1168.56415       -85.66815        32.01015
C04                      4959.43612       -80.50812        16.71012
C06                     80687.07915     -1074.36615        30.88315
C07                     -2327.92815        31.47915        30.25415
C09                     37161.42815      -500.09915        30.86015
C10                     -8875.58115       115.52215        29.56915
C16                     91120.98415     -1215.04415        34.51415
C22                    107251.68112     -1597.24812        12.54412
C27                     22923.39316      -319.82216        38.98716
C36                    -17073.93611      1951.44711         7.00011
> 2022 11 18 11 34 25.7049949  0 25                      
G04                    205410.35315     -2684.50115        32.51015                                                                
G07                   -234349.99415      3049.21015        34.87315                                                                
G08                   -111509.25615      1450.19615        35.28115                   -216123.54211      1683.41111         7.00011
G09                     72758.77814      -969.70814        25.83014                    133972.02511      -712.20411         7.00011
G16                    137634.95616     -1796.03316        36.62716                                                                
G18                    157278.39113     -2073.36813        20.55613                                                                
G26                    194648.03215     -2544.18115        35.05115                    380551.12311     -1882.93511         7.00011
G27                     69449.77516      -926.99116        37.39816                    133107.54211      -682.93611         9.49311
R09                   -233239.79015      3064.11915        30.36015
R15                    129688.95516     -1717.30516        39.74416
R17                    191941.05515     -2543.69715        33.84015
R07                     18602.86814      -276.05714        28.70214
J02                    -14132.01215       188.17015        35.46515                    -32090.94811       236.28911         7.00011
J04                     24062.21813      -310.86513        22.67113                     46108.08812      -227.27712        15.61812
C01                      6760.68613       -88.07013        19.28813
C03                      1252.03614       -85.40514        28.96714
C04                      5038.68312       -80.19112        16.89412
C06                     81760.16615     -1073.77815        30.97415
C07                     -2359.42414        31.44514        27.02314
C09                     37659.48715      -499.39815        29.56415
C10                     -8989.85514       114.72714        25.52214
C16                     92334.36715     -1213.68015        32.16115
C22                    108848.63412     -1598.06912        16.18612
C27                     23243.50915      -318.70715        33.93115
C36                    -19031.59511      1958.14711        12.34811
> 2022 11 18 11 34 26.7049948  0 25                      
G04                    208093.34914     -2691.20314        28.68414                                                                
G07                   -237397.93816      3050.73816        38.44716                                                                
G08                   -112959.33815      1447.57515        33.79715                   -217865.36311      1710.16411        11.52111
G09                     73730.09615      -971.07715        29.65715                    134610.83311      -594.75011         7.00011
G16                    139428.41816     -1793.81116        36.35316                                                                
G18                    159352.43313     -2072.74113        19.41913                                                                
G26                    197190.52515     -2543.06015        34.58715                    382374.00211     -1774.18911         7.00011
G27                     70377.43115      -928.42815        34.26415                    133762.15111      -629.12511         7.00011
R09                   -236301.66515      3063.84615        30.97715
R15                    131406.15716     -1717.24916        36.01816
R17                    194487.83316     -2543.94316        36.89716
R07                     18880.46914      -277.22114        28.75914
J02                    -14320.59915       188.04915        31.81915                    -32286.20211       236.28911         8.43811
J04                     24374.51814      -311.94414        25.12914                     46337.81012      -229.58312        14.66512
C01                      6849.55813       -88.48713        20.20013
C03                      1334.87714       -85.28314        26.11814
C04                      5117.69213       -79.98913        19.33013
C06                     82832.18515     -1073.73615        30.46415
C07                     -2391.19314        31.66314        26.31314
C09                     38155.36914      -498.14714        26.86114
C10                     -9103.68614       116.88514        26.89514
C16                     93546.88915     -1214.95215        34.43615
C22                    110440.77813     -1590.74013        18.30713
C27                     23561.99416      -317.88116        37.66116
C36                    -20991.90411      1960.82511         7.29611
> 2022 11 18 11 34 27.7049947  0 25                      
G04                    210776.16115     -2698.06015        31.16515                                                                
G07                   -240449.15516      3051.50316        36.82016                                                                
G08                   -114406.07616      1446.37616        37.21516                   -219632.09911      1736.89811         7.00011
G09                     74700.25214      -972.36614        26.98014                    135181.35911      -712.20411         7.00011
G16                    141221.08815     -1791.17615        30.58515                                                                
G18                    161427.35913     -2072.10013        20.52513                                                                
G26                    199730.94616     -2541.38516        35.73616                    384126.63011     -1892.69111        11.84111
G27                     71304.94116      -928.09616        37.40016                    134393.94911      -682.93611         7.00011
R09                   -239366.41215      3064.87715        31.15515
R15                    133120.94415     -1716.03915        34.23215
R17                    197035.34515     -2543.54715        34.99815
R07                     19158.50814      -278.41214        27.94414
J02                    -14508.49615       187.53415        35.09215                    -32540.92311       136.57511        10.64011
J04                     24684.19813      -312.47813        23.41113                     46570.38913      -233.35113        19.05913
C01                      6938.64514       -88.50014        26.91014
C03                      1417.18014       -84.81414        28.06214
C04                      5196.50413       -79.31613        23.37113
C06                     83905.80215     -1075.96215        29.56915
C07                     -2421.09914        30.56714        27.37314
C09                     38652.41415      -498.94315        30.05115
C10                     -9219.59514       117.21114        29.29514
C16                     94762.01216     -1217.12716        35.96416
C22                    112028.37812     -1587.48412        16.36812
C27                     23880.44216      -318.16416        39.60416
C36                    -22954.88411      1963.50211         7.00011
> 2022 11 18 11 34 28.7049947  0 25                      
G04                    213459.41916     -2693.13816        38.04416                                                                
G07                   -243498.27515      3048.74315        33.17015                                                                
G08                   -115853.13216      1446.72716        40.60616                   -221424.93911      1759.59211         7.00011
G09                     75669.25115      -972.22115        33.59415                    135820.80111      -591.79711         7.00011
G16                    143012.27116     -1795.06316        37.97016                                                                
G18                    163500.98013     -2071.22213        17.98613                                                                
G26                    202270.35115     -2540.64315        32.78215                    385947.86311     -1775.16111        11.45811
G27                     72233.09416      -927.05516        39.23816                    135048.98111      -637.94711         7.00011
R09                   -242433.10314      3065.24014        28.84014
R15                    134833.87515     -1714.72515        35.38215
R17                    199578.68215     -2543.25515        34.55615
R07                     19438.50715      -280.51115        29.88215
J02                    -14697.12716       189.16416        35.56716                    -32778.68011       236.27011         7.00011
J04                     24996.03513      -311.10913        20.81013                     46804.14312      -231.64112        14.03012
C01                      7027.54514       -88.15614        24.47014
C03                      1501.33915       -84.60015        33.83815
C04                      5274.82913       -78.53713        20.63213
C06                     84980.20615     -1078.01715        33.72515
C07                     -2451.68714        30.19714        29.41114
C09                     39151.19615      -498.93015        31.55115
C10                     -9337.79316       118.54816        35.61916
C16                     95980.62815     -1219.15915        32.55015
C22                    113613.39312     -1587.35912        14.69112
C27                     24202.05016      -320.30916        39.06216
C36                    -24920.54711      1966.18011         7.00011
> 2022 11 18 11 34 29.7049946  0 25                      
G04                    216150.77516     -2693.60216        37.61816                                                                
G07                   -246543.36716      3049.08916        36.13816                                                                
G08                   -117298.98416      1448.20416        37.48416                   -223243.38911      1782.19111         7.00011
G09                     76638.46616      -969.60216        38.19416                    136391.88913      -596.47013        21.31113
G16                    144803.64016     -1792.32816        38.76516                                                                
G18                    165573.47912     -2073.54112        17.07612                                                                
G26                    204808.86815     -2541.49015        32.19115                    387701.33411     -1892.69111         7.00011
G27                     73159.60616      -926.37616        37.82816                    135679.65711      -682.93611         7.00011
R09                   -245501.75015      3068.80115        30.30215
R15                    136546.88115     -1714.87015        34.33215
R17                    202122.09915     -2546.05515        33.17315
R07                     19719.07314      -280.69314        28.56114
J02                    -14887.62216       190.69716        37.47216                    -32977.11311       236.27011        12.23411
J04                     25307.17013      -311.66013        20.39213                     47038.60012      -232.44112        14.87712
C01                      7116.37514       -88.29114        24.59514
C03                      1584.53415       -84.49515        32.22015
C04                      5353.15012       -78.72812        16.51212
C06                     86056.76915     -1076.96015        31.88015
C07                     -2482.94515        31.22115        30.65115
C09                     39650.32915      -498.84415        33.66115
C10                     -9457.13515       119.36615        32.17815
C16                     97200.01716     -1217.05916        36.25316
C22                    115196.81411     -1585.92011         9.36011
C27                     24524.66316      -321.54016        38.14516
C36                    -26888.89411      1968.85511        12.32411
> 2022 11 18 11 34 30.7049945  0 25                      
G04                    218845.94415     -2686.13215        34.95215                                                                
G07                   -249589.95916      3050.15516        35.98116                                                                
G08                   -118744.66616      1450.46516        37.68016                   -225084.39411      1806.48611         7.00011
G09                     77607.44516      -968.30816        37.39316                    136984.54212      -588.83212        16.25912
G16                    146599.94816     -1796.04716        36.88016                                                                
G18                    167649.46813     -2077.36413        18.19813                                                                
G26                    207348.67215     -2542.99215        33.83215                    389523.59111     -1776.15111         7.00011
G27                     74083.88016      -927.41416        39.86416                    136335.97111      -637.33811         7.00011
R09                   -248569.99914      3070.78114        28.44114
R15                    138263.24015     -1716.19615        33.98715
R17                    204667.93015     -2551.00015        34.70615
R07                     19999.40215      -281.03015        30.18115
J02                    -15077.24116       190.84216        38.54416                    -33231.18211       136.57511        10.67411
J04                     25619.07313      -312.08213        22.67813                     47273.25113      -232.54713        18.16113
C01                      7205.46813       -88.48813        19.54313
C03                      1666.96715       -84.83715        30.76215
C04                      5432.02611       -79.41911        11.97911
C06                     87131.94015     -1074.71215        31.62815
C07                     -2515.83515        32.36015        30.87115
C09                     40148.50915      -498.47115        31.92015
C10                     -9578.58315       121.62815        33.17315
C16                     98417.78515     -1213.93915        32.97415
C22                    116782.65612     -1588.62212        16.49412
C27                     24844.56616      -323.96016        38.64216
C36                    -28859.91211      1971.53411         7.27211
> 2022 11 18 11 34 31.7049946  0 25                      
G04                    221536.67615     -2691.00415        32.41115                                                                
G07                   -252639.71815      3049.87715        32.76515                                                                
G08                   -120196.25015      1450.67715        33.53215                   -226947.17611      1830.78111         7.00011
G09                     78576.00416      -969.06716        39.86316                    137570.35912      -581.91612        13.33912
G16                    148397.28716     -1797.48216        35.66516                                                                
G18                    169727.53613     -2080.26713        19.92913                                                                
G26                    209888.67115     -2542.95515        35.02715                    391271.62411     -1892.69111        11.60311
G27                     75012.99116      -929.49716        37.04716                    136968.09011      -682.93611        10.98911
R09                   -251639.16915      3070.50015        30.16315
R15                    139980.46215     -1716.50315        33.99315
R17                    207219.17215     -2552.92815        33.37215
R07                     20278.90614      -281.94914        25.75214
J02                    -15267.26316       190.02916        36.00616                    -33467.36211       236.80411         7.00011
J04                     25931.83014      -312.56614        24.35214                     47508.51912      -232.70812        15.06412
C01                      7294.62013       -88.59913        18.66913
C03                      1748.44715       -84.71915        30.42715
C04                      5510.68413       -78.89913        17.69913
C06                     88206.84815     -1072.92515        32.21115
C07                     -2549.77314        33.28214        28.68914
C09                     40644.96315      -499.76815        29.91515
C10                     -9700.24515       121.87315        30.65415
C16                     99633.07715     -1211.84815        34.03915
C22                    118372.57112     -1592.63612        17.37812
C27                     25168.72715      -326.07615        35.42715
C36                    -30833.60111      1974.21011         7.00011
> 2022 11 18 11 34 32.7049945  0 25                      
G04                    224227.60615     -2696.70715        30.05515                                                                
G07                   -255690.44416      3051.74516        36.04616                                                                
G08                   -121647.26615      1448.16115        32.89915                   -228834.31811      1855.07611         7.00011
G09                     79547.72615      -972.12915        35.36815                    138208.02611      -582.57411         8.28811
G16                    150191.70215     -1795.93015        35.26715                                                                
G18                    171804.95614     -2075.90214        23.73014                                                                
G26                    212430.48315     -2542.45015        34.76115                    393087.64611     -1772.41711         7.00011
G27                     75942.93815      -930.26815        34.67615                    137625.95511      -637.35711         7.00011
R09                   -254704.92015      3069.09015        30.10715
R15                    141696.52815     -1716.50115        34.57215
R17                    209768.16516     -2550.57916        35.83816
R07                     20556.66214      -280.43714        27.75014
J02                    -15457.98215       190.79415        33.60915                    -33665.77311       235.26011         7.00011
J04                     26243.85714      -311.19714        24.42014                     47743.97112      -231.69112        15.91112
C01                      7383.88713       -89.09613        23.25713
C03                      1829.29514       -84.48314        28.15414
C04                      5589.39614       -79.38514        25.73514
C06                     89283.35715     -1075.48915        31.87015
C07                     -2581.96614        33.33314        29.31514
C09                     41145.91815      -500.79515        30.28415
C10                     -9817.04114       121.10214        29.02814
C16                    100848.73616     -1214.35016        36.42516
C22                    119968.86312     -1597.88512        15.30912
C27                     25492.24016      -323.93016        37.64916
C36                    -32809.98111      1976.88911         7.00011
> 2022 11 18 11 34 33.7049943  0 24                      
G04                    226920.21715     -2697.82115        34.13815                                                                
G07                   -258742.27215      3052.24415        32.32115                                                                
G08                   -123093.29016      1443.46716        37.64216                   -230745.69011      1879.37111         9.61311
G09                     80523.49116      -977.13716        36.79916                    138765.26511      -579.96811         9.21511
G16                    151987.80315     -1793.54515        34.91915                                                                
G18                    173882.93314     -2074.44314        24.05814                                                                
G26                    214969.90716     -2539.71816        35.73316                    394829.47111     -1892.69111        12.19711
G27                     76871.85216      -930.58216        36.89616                    138252.53711      -682.93611         7.00011
R09                   -257774.65615      3070.08915        29.99315
R15                    143412.17815     -1716.34615        33.44815
R17                    212315.81215     -2548.39115        33.84715
R07                     20836.95614      -283.30214        28.00914
J02                    -15649.11616       189.82116        36.91316                    -33913.86011       146.33111         7.00011
J04                     26554.73214      -312.18114        27.67714                     47980.83513      -235.03213        21.49413
C01                      7472.69014       -88.69014        25.74314
C03                      1909.67615       -84.40915        31.75515
C04                      5668.47214       -79.72014        26.10514
C06                     90361.84415     -1080.37615        31.05115
C07                     -2613.91615        32.28515        30.15115
C09                     41646.98815      -501.51515        32.23415
C10                     -9936.78615       119.96315        30.25715
C16                    102061.27615     -1216.23215        34.46715
C22                    121568.20712     -1596.33112        14.66812
C27                     25814.73116      -322.99016        40.52216
> 2022 11 18 11 34 34.7049943  0 24                      
G04                    229614.23316     -2695.80216        38.36216                                                                
G07                   -261792.53416      3050.25816        38.31616                                                                
G08                   -124535.53916      1440.98216        37.50416                   -232681.42011      1903.66611         7.00011
G09                     81500.82915      -978.98815        35.28215                    139407.20011      -587.22311         8.16611
G16                    153782.22816     -1792.37616        38.91216                                                                
G18                    175958.40614     -2073.43714        26.16914                                                                
G26                    217504.79015     -2536.12115        31.94415                    396640.62211     -1767.71011         7.14511
G27                     77801.88316      -930.41716        38.08216                    138902.60111      -633.62211         7.00011
R09                   -260844.86514      3069.37914        25.36214
R15                    145127.13615     -1717.34815        30.29215
R17                    214862.55215     -2546.36915        35.27215
R07                     21118.86814      -284.33414        27.43014
J02                    -15839.47116       190.33216        37.09916                    -34135.36111       228.45811         7.00011
J04                     26866.89715      -312.35115        31.90815                     48218.18014      -233.05614        26.15114
C01                      7561.12513       -88.56013        22.21713
C03                      1990.08215       -84.50715        32.77815
C04                      5747.52514       -79.98314        24.07814
C06                     91441.95315     -1081.83315        31.48715
C07                     -2645.55015        32.28915        30.63715
C09                     42147.51115      -501.58915        31.32515
C10                    -10055.08715       119.40915        31.19415
C16                    103279.66215     -1218.42915        33.35715
C22                    123166.40611     -1596.05311        11.84611
C27                     26138.79216      -322.90316        40.39316
> 2022 11 18 11 34 35.7049943  0 24                      
G04                    232310.39416     -2694.00716        39.07116                                                                
G07                   -264841.98016      3049.70616        35.97616                                                                
G08                   -125979.90716      1442.39716        37.91916                   -234641.38311      1927.96111         7.00011
G09                     82475.31016      -975.96816        37.42516                    139975.08912      -595.67512        14.26812
G16                    155571.59816     -1793.68316        37.86416                                                                
G18                    178035.25314     -2076.77514        25.80914                                                                
G26                    220036.49514     -2541.27914        29.01914                    398384.51311     -1882.93511         7.00011
G27                     78732.05516      -930.03116        39.26416                    139524.43811      -682.93611         7.00011
R09                   -263914.69514      3068.59314        24.09714
R15                    146841.48414     -1717.87114        28.04114
R17                    217408.25815     -2545.77115        33.91415
R07                     21401.60814      -284.91714        27.84614
J02                    -16030.51216       190.66516        37.33016                    -34319.42711       220.18811         7.00011
J04                     27178.31515      -311.96415        33.63115                     48452.18514      -233.08114        28.51014
C01                      7649.63813       -88.72113        20.74113
C03                      2070.72215       -84.42215        32.31715
C04                      5826.62313       -79.88913        20.66213
C06                     92524.14815     -1075.73915        34.49015
C07                     -2678.08215        31.97515        30.21415
C09                     42647.01815      -499.90415        31.64615
C10                    -10174.50115       119.74415        33.24315
C16                    104498.05915     -1218.64815        33.22815
C22                    124761.35411     -1589.08711         9.82011
C27                     26462.62717      -324.00117        41.71117
> 2022 11 18 11 34 36.7049942  0 24                      
G04                    235003.11716     -2690.90716        35.97816                                                                
G07                   -267891.49216      3049.74616        35.80016                                                                
G08                   -127424.63416      1445.46316        36.34216                   -236625.76611      1952.25611         9.64011
G09                     83449.77915      -970.96915        35.45815                    140620.65311      -596.98011         9.21711
G16                    157369.33516     -1797.50716        37.31216                                                                
G18                    180111.57613     -2078.35713        22.98513                                                                
G26                    222571.42614     -2534.40014        25.94914                    400197.44311     -1767.72911         7.05311
G27                     79664.08816      -931.05916        39.01416                    140172.57211      -633.47011         7.00011
R09                   -266984.70313      3068.67213        20.29613
R15                    148560.79914     -1718.51814        26.56414
R17                    219954.49415     -2548.59715        34.31915
R07                     21684.74614      -285.67514        25.66514
J02                    -16219.77416       189.35316        37.63316                    -34536.37911       146.33111         7.00011
J04                     27487.93116      -309.44016        38.11916                     48683.91315      -230.72415        34.34215
C01                      7738.26912       -89.02912        15.68912
C03                      2150.88315       -84.23915        31.66815
C04                      5905.51713       -79.80113        19.97813
C06                     93607.49515     -1077.24215        33.30215
C07                     -2710.96914        31.94814        29.30414
C09                     43144.52415      -498.77815        31.66515
C10                    -10297.18615       120.20215        30.83915
C16                    105713.53915     -1217.24515        34.18315
C22                    126347.02911     -1586.68311        10.07911
C27                     26789.41016      -325.38916        39.99816
> 2022 11 18 11 34 37.7049943  0 24                      
G04                    237690.63315     -2691.13515        30.56415                                                                
G07                   -270942.53815      3050.55715        31.88815                                                                
G08                   -128870.00015      1447.15315        33.19115                   -238634.31911      1976.55111         7.00011
G09                     84418.93015      -971.79315        32.02815                    141190.41411      -588.96911         7.00011
G16                    159168.68815     -1799.29515        35.47315                                                                
G18                    182189.39014     -2076.72814        25.36614                                                                
G26                    225109.82214     -2542.76914        27.28014                    401941.65511     -1892.69111         8.20811
G27                     80597.46616      -933.32416        36.44916                    140792.40811      -682.93611         8.87111
R09                   -270054.38413      3067.72313        21.33813
R15                    150280.11814     -1720.10114        25.28714
R17                    222501.04815     -2550.78415        31.96615
R07                     21969.66013      -287.99213        22.28213
J02                    -16411.08515       188.35215        35.13015                    -34742.24111       204.12511         7.00011
J04                     27796.99216      -308.69216        38.37116                     48914.69115      -230.91115        35.20815
C01                      7826.79313       -88.59113        17.88213
C03                      2230.84015       -84.06615        30.32215
C04                      5984.20412       -79.48612        14.92612
C06                     94683.82815     -1074.08615        33.13715
C07                     -2744.77314        31.44914        27.25814
C09                     43640.62014      -495.00714        29.00314
C10                    -10420.85315       120.98815        29.68115
C16                    106926.42616     -1214.65416        35.72016
C22                    127929.80512     -1585.20412        12.68712
C27                     27118.95716      -326.33816        35.94216
> 2022 11 18 11 34 38.7049942  0 24                      
G04                    240376.59214     -2697.25414        29.02814                                                                
G07                   -273992.93915      3050.54515        29.59215                                                                
G08                   -130314.14215      1445.36915        32.12715                   -240667.16611      2000.84611         8.58111
G09                     85387.63815      -972.13015        29.96515                    141834.63611      -596.98011         7.00011
G16                    160965.49015     -1797.27415        33.99015                                                                
G18                    184270.97614     -2078.09814        26.17314                                                                
G26                    227649.86514     -2539.28614        25.49214                    403759.10411     -1771.44511        10.09511
G27                     81530.51616      -933.27416        37.63716                    141441.70611      -633.01211        11.10711
R09                   -273123.06013      3068.33013        23.39613
R15                    151998.54514     -1721.73714        26.72914
R17                    225049.11015     -2550.78715        35.07715
R07                     22258.71113      -289.19413        20.66113
J02                    -16601.20416       189.38616        36.10416                    -34920.65311       204.12511         8.53711
J04                     28110.39316      -310.93616        37.69816                     49143.50715      -230.50815        33.39915
C01                      7915.09113       -88.86413        19.79213
C03                      2310.75115       -84.44315        31.51615
C04                      6062.68913       -79.13813        18.20713
C06                     95760.27215     -1076.33915        31.14715
C07                     -2779.85614        30.62014        24.70314
C09                     44135.63414      -498.12314        27.14214
C10                    -10545.21814       121.83414        25.84214
C16                    108141.69515     -1215.44215        33.58815
C22                    129511.19812     -1582.08012        12.86712
C27                     27442.06615      -326.38615        34.87915
> 2022 11 18 11 34 39.7049941  0 23                      
G04                    243064.88215     -2695.73115        31.79215                                                                
G07                   -277043.26815      3050.71415        30.42015                                                                
G08                   -131756.87215      1441.32615        35.49015                   -242724.37211      2025.14111         7.00011
G09                     86360.69215      -978.77515        31.49615                    142413.40211      -712.20411         8.64611
G16                    162755.96215     -1792.51615        35.15415                                                                
G18                    186348.41414     -2076.99814        25.36814                                                                
G26                    230189.32014     -2540.23414        29.03514                    405511.89211     -1892.69111         7.00011
G27                     82466.22016      -933.87116        37.72316                    142065.26612      -682.93612        13.00112
R09                   -276193.02513      3070.73013        21.39913
R15                    153721.88413     -1723.13313        23.22313
R17                    227598.11416     -2550.00016        35.76616
R07                     22547.27014      -284.55914        26.59614
J02                    -16790.63715       191.26915        35.30415                    -35136.22112       136.57512        14.18212
J04                     28425.94016      -313.42216        38.66916                     49372.34815      -233.56815        30.82715
C01                      8003.42913       -89.02113        21.20613
C03                      2391.37015       -85.21815        31.48215
C06                     96839.08415     -1079.12715        30.21715
C07                     -2810.78514        29.75014        25.05814
C09                     44632.22615      -497.99315        29.51015
C10                    -10667.72714       118.79714        28.06414
C16                    109355.74815     -1216.46615        34.36315
C22                    131093.05812     -1581.54412        12.91212
C27                     27770.33015      -327.30015        35.03215
> 2022 11 18 11 34 40.7049940  0 23                      
G04                    245764.84416     -2701.68816        36.91716                                                                
G07                   -280093.56915      3049.65315        33.81215                                                                
G08                   -133197.62716      1440.59816        35.88716                   -244805.80911      2049.43611         7.00011
G09                     87333.02615      -975.89315        33.20415                    143062.95311      -596.99911         7.00011
G16                    164545.61916     -1791.62616        36.73216                                                                
G18                    188423.80613     -2075.73113        23.17513                                                                
G26                    232727.57514     -2540.63714        27.33714                    407324.76711     -1776.74211         9.32511
G27                     83404.82216      -934.18816        35.91216                    142716.48811      -633.37411         7.95011
R09                   -279266.49513      3077.25813        23.24713
R15                    155444.85514     -1723.28614        23.56814
R17                    230146.44916     -2549.89016        35.99316
R07                     22835.63614      -284.75414        28.89714
J02                    -16981.20616       193.43616        36.08116                    -35339.02011       204.10611        11.87311
J04                     28739.33715      -314.15115        33.08215                     49607.65514      -235.30114        28.40914
C01                      8092.30413       -89.69113        20.06913
C03                      2471.71515       -85.44415        32.47615
C06                     97919.58715     -1081.83815        31.27315
C07                     -2840.70814        28.99114        28.69014
C09                     45133.16315      -500.96815        33.17515
C10                    -10785.99615       118.00615        30.58015
C16                    110570.26915     -1216.75415        35.36815
C22                    132676.33212     -1583.62312        14.76512
C27                     28098.55915      -328.58715        35.19415
> 2022 11 18 11 34 41.7049939  0 24                      
G04                    248466.44916     -2700.94916        40.66816                                                                
G07                   -283144.68815      3050.74715        29.64915                                                                
G08                   -134637.47816      1441.83016        38.09716                   -246911.57711      2073.73111         7.00011
G09                     88308.09915      -977.06615        34.52115                    143636.22111      -721.96011         9.59311
G16                    166337.94416     -1794.25916        38.41916                                                                
G18                    190497.65914     -2077.42414        25.33014                                                                
G26                    235265.27514     -2538.97014        25.94814                    409061.80911     -1882.93511         8.22511
G27                     84338.62416      -934.89216        36.27916                    143340.38012      -682.93612        13.91612
R09                   -282343.55113      3079.13413        19.66713
R15                    157166.35413     -1721.91713        23.36513
R17                    232696.22316     -2549.40816        35.80416
R07                     23121.95014      -286.53514        27.05614
J02                    -17175.85916       192.45416        37.00216                    -35517.23811       204.10611         7.00011
J04                     29054.01415      -315.10715        30.37715                     49844.17015      -235.39315        29.58015
C01                      8180.97113       -88.94913        20.40313
C03                      2552.03115       -85.44715        32.75115
C06                     98999.84915     -1082.16215        32.31715
C07                     -2871.70415        29.92415        31.36315
C09                     45634.40815      -502.49615        34.04215
C10                    -10904.90615       117.91715        31.97115
C16                    111787.14016     -1218.14616        35.85016
C22                    134259.80111     -1583.29211        12.02411
C27                     28425.50716      -328.79616        36.81416
C28                     10833.84613     -3100.49213        18.55813
> 2022 11 18 11 34 42.7049939  0 24                      
G04                    251167.38516     -2697.52116        39.76216                                                                
G07                   -286198.87414      3052.40214        27.49514                                                                
G08                   -136080.79816      1444.39716        38.22316                   -249041.57211      2098.04511        11.96211
G09                     89285.59015      -978.52915        34.81215                    144281.38111      -597.01811        10.32811
G16                    168134.49416     -1797.28716        36.04916                                                                
G18                    192576.91114     -2081.23714        27.81414                                                                
G26                    237803.38414     -2539.05814        25.31614                    410867.01311     -1761.84111        12.14811
G27                     85273.55316      -935.67416        39.39616                    143995.29811      -632.40311        10.49111
R09                   -285421.09513      3076.41713        18.61713
R15                    158885.00913     -1719.94813        22.16413
R17                    235250.68016     -2553.65416        35.51816
R07                     23408.54414      -285.10014        24.78014
J02                    -17370.64316       192.50616        37.80416                    -35727.12011       146.33111        11.06411
J04                     29368.95915      -313.99015        29.71415                     50079.56714      -234.86614        27.33814
C01                      8269.84312       -89.51212        15.35112
C03                      2633.36715       -85.13715        33.60115
C06                    100081.04515     -1075.08715        32.51215
C07                     -2904.16315        31.94015        31.31015
C09                     46135.92015      -500.69515        32.40915
C10                    -11024.95815       118.54415        32.47715
C16                    113003.58515     -1217.03215        34.00915
C22                    135843.46712     -1584.25212        16.80812
C27                     28753.70016      -328.64316        39.02316
C28                     13931.45012     -3100.49212        13.50612
> 2022 11 18 11 34 43.7049937  0 24                      
G04                    253866.16115     -2693.49115        34.69815                                                                
G07                   -289253.37414      3051.98514        26.38514                                                                
G08                   -137525.00216      1444.09516        36.42316                   -251203.05411      2122.33911         7.00011
G09                     90261.98715      -979.44415        32.57815                    144855.84811      -721.96011         7.00011
G16                    169932.64015     -1798.19815        35.12915                                                                
G18                    194657.75614     -2084.61614        29.23814                                                                
G26                    240345.80014     -2540.21314        27.95214                    412600.18211     -1882.93511         8.28111
G27                     86210.51316      -936.67216        37.68816                    144617.77112      -633.45212        14.66912
R09                   -288500.15513      3076.82913        19.71113
R15                    160599.21014     -1715.24514        26.06414
R17                    237808.95215     -2558.31215        34.02615
R07                     23694.17013      -284.16713        22.33913
J02                    -17564.55516       192.41016        37.90716                    -35932.06811       204.08711         7.00011
J04                     29681.44015      -312.31115        32.17715                     50311.94214      -234.06514        24.75114
C01                      8359.20613       -90.25513        18.69413
C03                      2714.50015       -84.93015        32.14615
C06                    101160.63015     -1076.09815        32.88015
C07                     -2937.24515        33.78915        30.41115
C09                     46635.09515      -499.80915        31.68615
C10                    -11145.60015       119.58715        30.47315
C16                    114216.46615     -1213.93115        33.04315
C22                    137429.00312     -1587.89012        13.88512
C27                     29083.67616      -328.94516        38.17416
C28                     17029.86211     -3102.06611        10.39311
> 2022 11 18 11 34 44.7049937  0 24                      
G04                    256555.26015     -2688.63715        29.80815                                                                
G07                   -292307.14014      3051.26614        26.01014                                                                
G08                   -138972.77115      1443.96315        32.48915                   -253390.01811      2152.75111         7.00011
G09                     91240.71115      -980.46715        30.53115                    145499.51311      -601.17211         7.00011
G16                    171731.03016     -1798.71616        38.00716                                                                
G18                    196742.04715     -2086.18915        29.86715                                                                
G26                    242887.24714     -2542.02914        28.89114                    414403.07811     -1759.65011         7.00011
G27                     87146.68216      -935.65616        36.63016                    145279.16711      -634.59411         9.61811
R09                   -291578.39113      3075.43413        20.23213
R15                    162319.15815     -1722.83815        31.75915
R17                    240367.39316     -2559.69016        37.26416
R07                     23982.69413      -288.46813        23.21013
J02                    -17757.25715       191.41315        34.88315                    -36113.91311       204.08711         7.00011
J04                     29989.92115      -311.48115        31.85015                     50541.26613      -233.93313        22.50013
C01                      8448.62912       -90.52012        13.64312
C03                      2795.03815       -84.53015        31.02215
C06                    102234.60315     -1075.62215        32.02415
C07                     -2970.82714        35.67514        28.08814
C09                     47131.74514      -500.07414        28.21214
C10                    -11266.68914       119.81014        28.59014
C16                    115427.69715     -1213.47515        34.53315
C22                    139018.39812     -1592.65612        16.90812
C27                     29412.72715      -329.08015        33.85215
C28                     20130.28311     -3104.12811        10.26711
> 2022 11 18 11 34 45.7049937  0 23                      
G04                    259241.30814     -2699.18314        27.03614                                                                
G07                   -295360.26313      3051.08813        22.48013                                                                
G08                   -140413.08415      1437.89415        33.90215                   -255603.49511      2179.31411         7.00011
G09                     92222.67915      -982.06715        31.60915                    146070.59311      -721.96011         7.00011
G16                    173525.93516     -1794.83716        35.89216                                                                
G18                    198824.61815     -2077.25815        29.98715                                                                
G26                    245431.00714     -2542.64014        27.75914                    416139.85111     -1882.93511         7.00011
G27                     88081.53816      -934.62816        35.99116                    145913.18211      -647.95511         7.00011
R09                   -294652.90912      3074.72912        16.72712
R15                    164044.86415     -1724.15215        31.39715
R17                    242924.48716     -2558.32116        37.00716
R07                     24276.65713      -291.25313        21.11713
J02                    -17949.19315       191.59415        33.29015                    -36329.53611       204.08711         7.00011
J04                     30303.02815      -311.32615        30.29315                     50776.19613      -245.30613        19.20513
C03                      2874.92415       -84.33615        30.91315
C06                    103308.25215     -1077.86615        32.02715
C07                     -3003.53214        36.43714        25.75314
C09                     47632.88614      -500.37614        27.17814
C10                    -11387.70714       119.76314        25.97514
C16                    116640.21015     -1217.15015        35.16815
C22                    140611.24812     -1594.82012        14.44512
C27                     29741.78615      -329.31215        34.52115
C28                     23234.51811     -3102.23111         7.00011
> 2022 11 18 11 34 46.7049935  0 24                      
G04                    261927.15615     -2704.07715        32.20515                                                                
G07                   -298409.97913      3047.71113        19.86913                                                                
G08                   -141849.48516      1435.89816        38.98116                   -257843.52711      2205.87611         7.00011
G09                     93205.03215      -983.19315        33.27915                    146715.20312      -596.98012        13.91512
G16                    175319.73216     -1792.73816        37.37316                                                                
G18                    200906.79414     -2080.82114        29.22614                                                                
G26                    247973.95215     -2537.75615        32.17115                    417954.14611     -1760.35511         7.00011
G27                     89018.89116      -935.61216        37.24116                    146574.12011      -646.10311         8.31211
R09                   -297725.76513      3072.97613        17.71413
R15                    165769.18915     -1721.01015        34.53415
R17                    245479.39216     -2554.85616        37.52516
R07                     24571.87713      -292.47513        20.25213
J02                    -18141.75716       192.62816        36.44216                    -36533.61911       204.06811         7.00011
J04                     30616.88514      -311.25114        28.92914                     51011.89512      -233.92712        15.06112
C03                      2954.48215       -84.04415        31.50415
C06                    104387.28615     -1077.70015        31.42715
C07                     -3036.91214        33.51614        28.10114
C09                     48133.86415      -501.66615        30.06615
C10                    -11507.02415       118.74715        29.82215
C16                    117859.60315     -1219.18915        34.41815
C22                    142207.39411     -1596.97211        10.74111
C27                     30074.00615      -330.03615        35.31315
C28                     26338.13411     -3101.51811         7.00011
E18                      3765.72913      -924.87613        21.04913                                                                
> 2022 11 18 11 34 47.7049934  0 25                      
G04                    264618.44316     -2705.88116        35.77316                                                                
G07                   -301457.13213      3045.97613        22.82013                                                                
G08                   -143285.56016      1435.00116        38.52416                   -260110.12411      2232.43811         7.00011
G09                     94190.58015      -984.35315        30.59715                    147288.22411      -721.96011        10.49111
G16                    177112.93516     -1793.82616        38.95816                                                                
G18                    202981.95315     -2078.13515        30.73615                                                                
G26                    250514.50215     -2541.50115        33.60515                    419692.27111     -1892.69111         7.00011
G27                     89956.05016      -938.00516        36.14716                    147209.54011      -692.69211         7.00011
R09                   -300795.12012      3069.51112        17.45712
R15                    167490.74015     -1719.22715        30.12815
R17                    248032.22316     -2554.79816        36.50316
R07                     24865.55413      -290.23813        21.52513
J02                    -18336.13815       191.96315        35.01815                    -36715.27111       204.06811         8.72211
J04                     30931.29714      -311.21314        28.10214                     51247.77413      -235.13713        22.14213
J02                        19.59513      -274.14613        22.27113                                                                
C03                      3033.79115       -83.90315        32.52515
C06                    105467.25015     -1082.47715        33.54115
C07                     -3066.36115        30.11315        30.28515
C09                     48636.64615      -502.77615        31.74015
C10                    -11623.86715       115.13615        33.27115
C16                    119079.67515     -1220.87615        35.41615
C22                    143805.90211     -1600.48911        10.12011
C27                     30406.37916      -329.66016        35.82216
C28                     29443.48911     -3101.91011         7.00011
C30                   2730062.15616      2488.09216        36.19516
> 2022 11 18 11 34 48.7049934  0 25                      
G04                    267325.51416     -2706.44316        36.61116                                                                
G07                   -304504.05714      3048.27314        24.59614                                                                
G08                   -144722.82516      1437.50816        39.50116                   -262403.29711      2259.00111         7.00011
G09                     95177.51014      -985.22514        29.13314                    147932.95811      -596.98011         7.00011
G16                    178906.71816     -1795.98016        40.48016                                                                
G18                    205059.69515     -2077.78715        29.82315                                                                
G26                    253053.78614     -2540.07914        29.41614                    421505.18812     -1767.71012        13.27212
G27                     90893.20916      -939.04516        37.00916                    147869.43811      -647.20811         7.00011
R09                   -303862.02913      3066.35713        18.82213
R15                    169210.39414     -1716.90814        25.65114
R17                    250588.52616     -2556.75916        37.44916
R07                     25157.07313      -289.02013        20.78713
J02                    -18532.39915       194.07415        35.27815                    -36929.81611       146.33111        12.07011
J04                     31245.14214      -311.55914        27.53514                     51481.44614      -234.07914        25.82214
J02                       564.30813      -274.14513        22.13413                                                                
C03                      3112.88215       -83.68215        33.44915
C06                    106548.59615     -1084.51115        34.52615
C07                     -3097.41515        30.62215        33.43315
C09                     49138.39515      -502.47815        32.51715
C10                    -11739.42915       116.50415        33.34515
C16                    120299.04316     -1219.49116        36.87816
C22                    145406.13212     -1602.59712        13.80112
C27                     30738.75616      -331.55916        37.41716
C28                     32546.01811     -3101.12611         7.00011
E18                      3783.06013      -950.24213        21.52813                                                                
> 2022 11 18 11 34 49.7049934  0 26                      
G04                    270028.33816     -2693.79816        36.48416                                                                
G07                   -307549.83914      3048.18214        23.74514                                                                
G08                   -146164.43516      1440.58016        39.79216                   -264723.00411      2285.56311         7.00011
G09                     96160.27015      -983.62315        30.81615                    148506.61311      -721.96011         9.70411
G16                    180703.19216     -1799.63816        38.23916                                                                
G18                    207136.64514     -2077.76114        26.46514                                                                
G26                    255595.47514     -2538.95614        27.55614                    423246.58411     -1892.69111         9.24911
G27                     91830.90516      -938.66616        36.42216                    148503.38011      -692.69211         7.00011
R09                   -306929.18312      3070.23012        15.79112
R15                    170928.27713     -1714.60813        21.97113
R17                    253148.66815     -2558.85915        35.12615
R07                     25446.98913      -288.32113        21.94213
J02                    -18726.02516       192.92016        35.54516                    -37134.71211       203.38211         7.01811
J04                     31559.67215      -311.32915        31.00015                     51714.14414      -233.44014        27.99114
J02                       838.51614      -268.51314        23.90714                                                                
C03                      3191.55815       -83.80815        31.57215
C06                    107626.71315     -1079.88515        33.26915
C07                     -3129.04515        30.58515        32.68215
C09                     49638.24815      -500.69815        33.05115
C10                    -11857.79715       119.09815        33.27215
C16                    121515.55416     -1215.52816        35.54816
C22                    147008.39912     -1604.28312        12.54912
C27                     31070.21916      -332.11116        38.30316
C28                     35649.14011     -3103.83611         7.00011
C30                   4091118.19216      2494.89516        37.43516
E18                      4734.18813      -950.24213        20.96913                                                                
> 2022 11 18 11 34 50.7049931  0 26                      
G04                    272730.20115     -2695.23315        35.39015                                                                
G07                   -310593.88414      3047.50714        25.12814                                                                
G08                   -147606.34116      1443.66116        37.29216                   -267069.30211      2312.12611        11.30511
G09                     97141.20714      -983.89614        28.74014                    149153.37711      -597.03711         7.00011
G16                    182505.94016     -1801.62816        37.14516                                                                
G18                    209215.60714     -2088.18214        28.55514                                                                
G26                    258140.92114     -2547.32214        28.74214                    425056.92811     -1769.02511         7.00011
G27                     92768.37516      -939.20816        37.36816                    149165.04511      -644.50211         7.00011
R09                   -309994.92711      3067.34111        11.85911
R15                    172643.87913     -1713.20613        23.37613
R17                    255709.86515     -2563.58615        33.34015
R07                     25737.84513      -288.40213        21.57113
J02                    -18916.49116       191.46616        36.35916                    -37316.29111       202.44811         7.00011
J04                     31872.95515      -311.17415        34.44715                     51946.23214      -232.77214        28.40514
J02                      1113.68213      -267.88513        22.75013                                                                
C03                      3270.22015       -83.63315        31.54415
C06                    108705.48815     -1077.31115        33.42815
C07                     -3159.24815        30.43615        31.31215
C09                     50135.00315      -498.59415        32.30215
C10                    -11979.80215       121.23015        31.76615
C16                    122729.71415     -1212.86715        34.64315
C22                    148608.86112     -1599.07612        16.00012
C27                     31402.35716      -333.10816        38.53916
C28                     38757.27811     -3109.12511         7.00011
C30                   4088625.25716      2491.86116        38.10716
E18                      5685.18913      -945.30313        20.10913                                                                
> 2022 11 18 11 34 51.7049933  0 26                      
G04                    275422.12116     -2690.31316        35.69016                                                                
G07                   -313638.46713      3047.58113        22.78913                                                                
G08                   -149046.13215      1441.97315        34.76215                   -269455.02511      2338.68811        10.18511
G09                     98123.28014      -984.43214        28.09514                    149733.87811      -721.96011        10.07611
G16                    184311.50215     -1803.58615        34.88515                                                                
G18                    211297.95915     -2086.65215        32.76915                                                                
G26                    260684.53114     -2544.59414        28.68014                    426802.83111     -1882.93511        11.94411
G27                     93710.97516      -940.11516        38.32816                    149800.19611      -692.69211         8.98411
R09                   -313061.59612      3071.33512        16.12412
R15                    174356.26113     -1712.56013        22.21413
R17                    258273.06615     -2567.04515        32.13015
R07                     26030.34013      -287.98613        18.13213
J02                    -19105.04716       190.43716        37.16816                    -37535.51011       146.33111        11.49311
J04                     32184.19516      -312.59016        36.49416                     52178.01115      -231.92915        31.17115
J02                      1388.60213      -268.60313        18.33613                                                                
C03                      3348.45215       -83.37415        32.08815
C06                    109782.08715     -1073.50715        31.99715
C07                     -3185.94714        30.40114        29.02414
C09                     50629.97615      -496.97015        30.04015
C10                    -12104.78715       123.35215        32.10015
C16                    123943.71415     -1212.89015        35.13215
C22                    150208.21211     -1599.14311        10.94811
C27                     31734.26716      -334.22916        38.26016
C28                     41869.04911     -3115.47011         7.03911
C30                   4086132.90316      2491.38316        37.88016
E18                      6636.04413      -953.17713        19.24813                                                                
> 2022 11 18 11 34 52.7049931  0 26                      
G04                    278113.21515     -2701.99915        33.09215                                                                
G07                   -316687.61314      3049.10914        26.43414                                                                
G08                   -150484.99215      1439.20715        33.56015                   -271873.06111      2375.31211         7.53711
G09                     99108.79714      -984.96014        29.19714                    150385.04511      -604.39211         7.00011
G16                    186114.87916     -1803.15916        36.76316                                                                
G18                    213386.86115     -2089.38015        33.41215                                                                
G26                    263232.15915     -2545.09415        30.78015                    428624.30411     -1770.87311        12.20411
G27                     94652.37616      -941.15316        37.18016                    150461.88811      -644.21711         7.00011
R09                   -316131.18213      3069.01413        18.79313
R15                    176067.90414     -1712.12614        23.51814
R17                    260839.48615     -2569.06315        32.67515
R07                     26325.04012      -293.62612        15.95212
J02                    -19295.40716       189.49816        37.30016                    -37744.34111       209.06011         8.35211
J04                     32496.40815      -312.07815        34.31415                     52410.13215      -231.30615        32.94815
J02                      1658.52013      -268.09113        19.65613                                                                
C03                      3426.44515       -83.26115        32.75515
C06                    110853.79615     -1075.23815        30.87715
C07                     -3216.89814        30.37514        26.86514
C09                     51124.07414      -495.99614        26.68814
C10                    -12232.51515       124.79815        30.77915
C16                    125159.03915     -1214.31815        33.42615
C22                    151809.53212     -1598.77212        15.79112
C27                     32070.38516      -335.09116        37.51016
C28                     44983.70511     -3117.23611         7.00011
C30                   4083640.14616      2489.89616        37.74216
E18                      7586.72013      -948.12613        18.38813                                                                
> 2022 11 18 11 34 53.7049931  0 27                      
G04                    280804.26615     -2700.78815        30.64015                                                                
G07                   -319738.96314      3049.68614        28.17714                                                                
G08                   -151924.16215      1437.69515        31.57715                   -274306.60711      2404.73311         7.00011
G09                    100095.39515      -986.73815        32.46615                    150961.77311      -721.96011         7.00011
G16                    187914.29415     -1800.56415        33.76815                                                                
G18                    215478.32215     -2090.05315        31.63315                                                                
G26                    265779.02715     -2544.40615        31.06215                    430373.85211     -1770.95811         7.15211
G27                     95594.41516      -942.59016        36.14216                    151098.89311      -692.69211         7.97911
R09                   -319203.31813      3072.82013        21.25713
R15                    177781.37714     -1718.41714        27.52414
R19                    -16904.80412      4150.40012        16.68512
R17                    263405.60716     -2566.36016        37.44516
R07                     26620.71613      -297.22413        18.21213
J02                    -19487.01516       191.49516        36.47616                    -37929.10211       208.83111         7.00011
J04                     32811.48016      -313.90516        35.95416                     52641.30915      -230.21815        30.08615
J02                      1924.17712      -268.66312        14.98712                                                                
C03                      3504.27115       -83.35015        31.56715
C06                    111930.80715     -1078.96515        29.93015
C07                     -3248.59214        31.40414        24.93414
C09                     51618.73114      -498.23014        24.28214
C10                    -12359.00614       124.94814        27.93614
C16                    126373.47815     -1216.25515        33.40615
C22                    153408.16312     -1594.12112        13.44612
C27                     32408.19115      -336.11315        32.56115
C30                   4081149.10716      2489.06516        36.21016
C36                     -9630.34815      2120.77315        32.58715
E18                      8537.24513      -949.86813        17.52813                                                                
> 2022 11 18 11 34 54.7049931  0 27                      
G04                    283509.27415     -2707.66015        31.98115                                                                
G07                   -322788.56814      3049.09514        26.02114                                                                
G08                   -153360.32816      1435.45916        36.03416                   -276767.96511      2426.22611         7.00011
G09                    101080.06314      -987.35014        27.39414                    151614.03011      -600.06611         7.00011
G16                    189710.41116     -1796.05916        37.71816                                                                
G18                    217569.08715     -2082.40815        34.83415                                                                
G26                    268323.86215     -2542.45115        31.37415                    432192.55011     -1770.96811         7.70811
G27                     96536.72416      -942.90416        35.73316                    151759.84411      -647.79911         7.00011
R09                   -322276.66913      3076.28013        18.51813
R15                    179504.04914     -1722.38914        26.22314
R19                    -21049.11113      4136.51413        20.37113
R17                    265970.09616     -2563.03016        36.25416
R07                     26921.47613      -304.92813        18.67013
J02                    -19679.54516       190.65816        36.95316                    -38151.66311       146.33111         7.75411
J04                     33129.81215      -314.32215        33.33115                     52873.63614      -230.25514        27.47814
J02                      2192.53713      -268.00013        22.25913                                                                
C03                      3581.87715       -83.69515        31.15715
C06                    113011.43815     -1081.63615        31.08115
C07                     -3280.16114        31.25114        27.65214
C09                     52117.94114      -505.47314        27.47914
C10                    -12479.79714       121.43214        27.37814
C16                    127590.89715     -1219.27815        33.71415
C22                    155000.22311     -1592.18611        12.11511
C27                     32741.23316      -336.10916        36.85916
C30                   4078660.36016      2485.25216        36.37216
C36                    -11748.90715      2116.42415        29.78015
E18                      9487.60612      -954.06712        16.66812                                                                
> 2022 11 18 11 34 55.7049930  0 27                      
G04                    286218.13016     -2704.12416        36.84916                                                                
G07                   -325836.62815      3047.84715        30.02815                                                                
G08                   -154793.98716      1433.33416        39.28616                   -279256.44111      2453.26511         7.00011
G09                    102069.41214      -988.45114        28.44014                    152190.66411      -731.71611         7.00011
G16                    191506.25216     -1794.42316        37.58916                                                                
G18                    219659.56515     -2083.00115        33.14615                                                                
G26                    270867.48414     -2540.53514        27.60114                    433939.16211     -1770.96911         7.00011
G27                     97479.71516      -942.54016        35.88516                    152395.86211      -692.69211        12.32011
R09                   -325350.98612      3077.49412        17.24912
R15                    181229.07114     -1726.63814        23.98514
R19                    -25187.09914      4145.37514        23.72314
R17                    268531.75015     -2559.83615        35.00815
R07                     27231.15412      -311.72312        16.35412
J02                    -19869.82715       189.72815        34.89215                    -38362.52811       210.24111         7.00011
J04                     33443.25015      -314.01015        31.16215                     53106.49714      -230.59314        25.30414
J02                      2459.57213      -267.72613        20.52413                                                                
C03                      3659.48015       -83.96015        32.92315
C06                    114094.34215     -1083.34715        32.90915
C07                     -3311.58314        31.06814        26.87714
C09                     52618.58615      -504.19315        31.29815
C10                    -12596.74114       118.83014        24.54814
C16                    128812.78016     -1222.68716        35.67916
C22                    156590.27311     -1589.99911         7.06411
C27                     33076.98516      -335.01216        37.82816
C30                   4076179.27316      2482.21516        37.10116
C36                    -13864.49015      2119.53715        32.65415
E18                     10437.81212      -952.86812        16.21212                                                                
> 2022 11 18 11 34 56.7049930  0 28                      
G04                    288929.58216     -2706.65816        36.61716                                                                
G07                   -328883.59014      3047.85014        26.40714                                                                
G08                   -156227.56416      1432.65016        40.12516                   -281771.92211      2480.30411         7.00011
G09                    103058.15815      -988.52515        34.05815                    152840.57111      -606.73611         7.00011
G16                    193304.27016     -1796.57716        39.93116                                                                
G18                    221742.76715     -2081.67015        33.38415                                                                
G26                    273408.28714     -2540.06814        25.30714                    435754.02411     -1770.98811         7.00011
G27                     98421.91916      -942.05216        39.52416                    153059.49811      -647.81811        11.17511
R09                   -328424.72513      3078.25413        19.37613
R15                    182955.85514     -1728.23414        24.51914
R19                    -29332.72814      4143.90114        26.04314
R17                    271091.16715     -2564.72015        34.69315
R07                     27540.71413      -307.58513        21.04313
J02                    -20062.88416       192.70216        36.17516                    -38545.46111       209.80311         7.00011
J04                     33755.37014      -313.68114        27.21314                     53341.37314      -231.80414        24.24414
J02                      2724.71113      -267.91813        23.31213                                                                
C03                      3736.64015       -83.66015        34.36715
C05                       518.20415      -127.21615        34.45215
C06                    115176.83015     -1083.56015        32.58615
C07                     -3341.25215        30.26815        31.97015
C09                     53122.88815      -505.93915        34.51315
C10                    -12711.50114       117.03214        26.21814
C16                    130032.41915     -1223.45115        34.90115
C22                    158181.73111     -1594.21111         7.00011
C27                     33410.78916      -334.65716        37.29916
C30                   4073698.09316      2483.04016        39.76316
C36                    -15980.14716      2114.82016        37.94616
E18                     11387.84012      -954.93112        15.87412                                                                
> 2022 11 18 11 34 57.7049929  0 28                      
G04                    291633.51516     -2697.49916        36.40516                                                                
G07                   -331929.57615      3050.24415        30.90915                                                                
G08                   -157661.52316      1433.99816        39.48516                   -284314.46411      2507.32411         7.00011
G09                    104044.78016      -987.24916        38.41616                    153418.77111      -731.71611         7.00011
G16                    195103.18216     -1798.96016        39.29116                                                                
G18                    223826.98015     -2092.92515        34.53515                                                                
G26                    275950.04513     -2537.91813        23.46213                    437502.63611     -1770.98811         7.00011
G27                     99364.70416      -942.05216        37.23216                    153724.80513      -692.69213        18.24913
R09                   -331500.96413      3072.70213        21.27613
R15                    184683.80413     -1728.27313        23.32313
R19                    -33480.91814      4148.29714        26.46814
R17                    273650.12115     -2562.78215        35.01215
R07                     27850.30613      -304.31413        22.53813
J02                    -20256.23416       193.62016        35.94416                    -38762.17011       146.33111         7.00011
J04                     34066.32714      -314.45914        28.80714                     53577.90113      -232.99913        20.78313
J02                      2991.50714      -266.57514        28.73614                                                                
C03                      3813.68615       -83.76215        33.76615
C05                       642.78715      -122.00715        35.05015
C06                    116260.01615     -1079.39715        32.96915
C07                     -3369.68215        31.26215        33.21315
C09                     53626.24315      -503.67815        34.10815
C10                    -12828.65815       118.97515        30.32215
C16                    131253.31115     -1219.35115        34.79015
C22                    159772.71211     -1592.25211         7.00011
C27                     33745.40616      -334.64216        38.43816
C30                   4071212.27316      2486.29816        40.26716
C36                    -18097.63116      2116.71016        37.96516
E18                     12337.71512      -954.17912        15.14212                                                                
> 2022 11 18 11 34 58.7049928  0 28                      
G04                    294332.95616     -2696.77216        37.60916                                                                
G07                   -334981.69015      3051.02115        30.75115                                                                
G08                   -159094.73816      1434.88916        37.69316                   -286884.04011      2534.36311         7.00011
G09                    105028.42916      -983.47616        38.19316                    154072.94211      -606.75511         9.82311
G16                    196903.60416     -1801.09316        37.34216                                                                
G18                    225911.54916     -2091.16816        37.13316                                                                
G26                    278488.75413     -2539.61413        22.85713                    439317.52611     -1771.00711         7.00011
G27                    100309.54016      -943.80516        39.48116                    154413.30914      -665.13914        28.21914
R09                   -334573.03213      3069.15113        20.83513
R15                    186412.53014     -1728.55014        23.50914
R19                    -37635.14814      4154.48114        26.11714
R17                    276213.32815     -2564.57715        33.71815
R07                     28152.78814      -302.68014        24.34514
J02                    -20451.17216       194.79416        36.60416                    -38969.01311       204.94411         7.00011
J04                     34380.40214      -315.05414        24.96814                     53815.23813      -233.57113        20.09613
J02                      3253.12715      -263.56615        30.09015                     62115.59811     -2790.25111         9.79411
C03                      3890.45915       -83.63515        32.79915
C05                       764.83815      -120.29115        32.68715
C06                    117338.36015     -1077.22515        32.68715
C07                     -3399.73115        33.95015        34.05115
C09                     54128.01015      -501.34215        32.65215
C10                    -12950.71315       120.70515        32.72915
C16                    132469.97415     -1217.65315        34.56515
C22                    161359.18311     -1585.85711         7.00011
C27                     34081.98316      -335.23416        39.89816
C30                   4068723.22816      2489.48016        36.98316
C36                    -20216.08615      2117.84815        35.01815
E18                     13287.44212      -955.84412        14.28212                                                                
> 2022 11 18 11 34 59.7049928  0 27                      
G04                    297029.56616     -2696.80916        38.01316                                                                
G07                   -338034.18314      3051.57914        27.64714                                                                
G08                   -160528.29816      1433.71616        38.11816                   -289480.63311      2561.40111         7.00011
G09                    106009.67115      -984.30715        34.50115                    154655.84111      -731.71611        10.39011
G16                    198706.44616     -1802.78716        35.51316                                                                
G18                    228002.24416     -2094.80016        38.41016                                                                
G26                    281031.93313     -2543.31013        21.24813                    441067.06411     -1882.93511         7.00011
G27                    101254.41916      -943.84716        38.90516                    155105.88615      -701.19915        30.39815
R09                   -337644.25713      3067.15013        20.61013
R15                    188142.48214     -1729.64014        24.38914
R19                    -41793.68513      4156.61513        23.16913
R17                    278777.66415     -2567.10715        33.82015
R07                     28452.21213      -299.28213        23.37313
J02                    -20645.05816       194.08916        37.88116                    -39152.55711       204.94411         7.00011
J04                     34691.56314      -315.04314        23.94214                     54052.71912      -233.16512        14.33912
J02                      3512.95214      -261.84014        28.71514                     62371.75111      -185.37611         7.00011
C03                      3967.08315       -83.64915        32.23415
C05                       887.38815      -121.04315        29.74015
C06                    118414.96015     -1075.72715        32.47215
C07                     -3433.61815        34.87115        30.18315
C09                     54631.82215      -502.16615        30.95215
C10                    -13073.59815       120.07515        33.16515
C16                    133682.91815     -1215.80615        33.79815
C22                    162946.16511     -1591.83911        11.76411
C27                     34417.24516      -335.68816        39.58116
C30                   4066233.43516      2488.91016        36.56616
C36                    -22331.58315      2117.16415        35.30215
> 2022 11 18 11 35 00.7049926  0 27                      
G04                    299725.16415     -2704.52715        34.26315                                                                
G07                   -341085.61315      3049.12815        29.60915                                                                
G08                   -161961.41616      1431.52616        36.39916                   -292104.27611      2588.42111        10.31311
G09                    106995.03615      -987.03515        31.82115                    155306.79411      -606.73611        10.31211
G16                    200505.62815     -1800.98515        35.27115                                                                
G18                    230094.43116     -2094.47616        38.04016                                                                
G26                    283580.15714     -2545.91414        24.54714                    442884.39511     -1771.02611         9.54811
G27                    102199.32716      -943.89816        36.64816                    155803.46516      -712.34516        35.81116
R09                   -340711.48113      3068.78213        17.91413
R15                    189869.76814     -1727.52914        26.40514
R19                    -45954.15913      4156.53213        22.41913
R17                    281343.38115     -2570.28415        35.45015
R07                     28749.28213      -295.08013        21.80413
J02                    -20835.80416       194.09216        36.34716                    -39369.54011       146.33111        11.13011
J04                     35005.40214      -313.74914        23.57714                     54289.61911      -233.85111         8.58111
J02                      3773.40614      -266.84814        28.92714                     62660.58211      -284.89911         7.00011
C03                      4043.31414       -83.63614        27.99714
C05                      1010.35514      -121.93514        29.31114
C06                    119490.65715     -1077.39915        32.91615
C07                     -3470.66915        34.86215        31.40315
C09                     55135.49214      -502.07214        29.39114
C10                    -13192.96215       119.83215        31.60815
C16                    134895.08115     -1215.91115        34.23315
C22                    164541.02911     -1596.21411        11.15611
C27                     34755.09016      -338.35416        37.19216
C30                   4063744.48416      2487.09116        38.17416
C36                    -24446.29416      2117.39316        36.17416
> 2022 11 18 11 35 01.7049925  0 27                      
G04                    302428.41615     -2706.16815        34.84915                                                                
G07                   -344135.45514      3047.60014        28.68514                                                                
G08                   -163389.41916      1429.17216        37.94616                   -294752.43511      2615.46011        12.39211
G09                    107986.12316      -991.03316        38.43716                    155892.21811      -721.96011         7.00011
G16                    202301.74016     -1797.02716        35.99516                                                                
G18                    232185.22816     -2089.09616        37.96916                                                                
G26                    286128.25414     -2545.90414        25.93714                    444632.60211     -1892.69111         8.58111
G27                    103145.10616      -946.28316        38.54116                    156506.41715      -706.40515        33.41715
R09                   -343777.76412      3067.04712        15.88812
R15                    191594.20114     -1724.93714        28.80414
R19                    -50106.80214      4149.42114        24.49814
R17                    283913.43216     -2568.75316        36.09516
R07                     29045.46313      -296.85513        21.33513
J02                    -21029.33215       195.34815        33.94715                    -39576.57211       204.92511         7.00011
J04                     35316.13813      -311.18113        19.80013                     54525.81813      -235.07013        18.43313
J02                      4033.78515      -270.94815        32.34515                     62903.82011      -282.78411         7.00011
C03                      4119.00815       -83.51615        30.03615
C05                      1135.49915      -124.28715        29.60415
C06                    120567.94815     -1082.18015        32.24115
C07                     -3506.87215        34.66315        29.59415
C09                     55638.75314      -502.24214        28.38014
C10                    -13309.64415       117.83915        33.63515
C16                    136114.06016     -1217.84916        37.75216
C22                    166136.63511     -1598.78711         9.45511
C27                     35093.07016      -339.28816        38.95716
C30                   4061258.85316      2483.38816        36.07216
C36                    -26560.29915      2116.46815        31.63115
> 2022 11 18 11 35 02.7049925  0 27                      
G04                    305139.67416     -2710.62416        35.92016                                                                
G07                   -347182.87314      3045.90614        23.68914                                                                
G08                   -164813.94716      1427.84216        38.31316                   -297426.49911      2642.53711         7.52711
G09                    108977.18316      -993.34416        38.08216                    156549.48711      -605.53511         7.00011
G16                    204100.13415     -1797.43015        34.37715                                                                
G18                    234270.74716     -2085.61316        37.56116                                                                
G26                    288671.53714     -2544.09014        24.79614                    446451.67611     -1770.70211         7.00011
G27                    104092.70516      -948.40716        37.45316                    157208.14916      -709.04016        36.35416
R09                   -346839.88213      3063.93213        19.34213
R15                    193318.45714     -1724.26414        28.73114
R19                    -54258.64314      4146.33114        25.06814
R17                    286481.21016     -2567.32016        36.90816
R07                     29344.45814      -299.51914        23.94114
J02                    -21221.90015       193.10715        35.01315                    -39760.17711       204.92511         7.00011
J04                     35627.79413      -311.27013        22.57313                     54761.80713      -231.33613        17.51113
J02                      4298.51815      -269.74515        34.82415                     63194.75411      -185.37611        11.08611
C03                      4194.38915       -83.77615        30.26415
C05                      1259.94314      -124.51114        28.09614
C06                    121654.29315     -1088.22415        32.22415
C07                     -3536.38115        32.95815        30.13315
C09                     56143.00215      -503.74715        31.49215
C10                    -13427.20515       117.80815        29.55515
C16                    137335.40116     -1221.05516        36.53616
C22                    167737.83111     -1605.04311         7.00011
C27                     35431.45417      -338.97717        41.56017
C30                   4058779.31416      2478.87116        35.95916
C36                    -28672.41715      2116.05415        32.02915
> 2022 11 18 11 35 03.7049925  0 27                      
G04                    307852.01016     -2709.98816        38.53416                                                                
G07                   -350228.51014      3045.43114        26.53514                                                                
G08                   -166242.88516      1428.89716        39.73816                   -300129.41511      2671.00511         7.00011
G09                    109970.13216      -992.88716        39.10616                    157139.96813      -618.05813        23.13013
G16                    205898.85816     -1798.97616        38.36516                                                                
G18                    236351.99016     -2084.55116        36.24916                                                                
G26                    291213.24814     -2542.45114        24.10814                    448201.42011     -1892.69111         7.00011
G27                    105040.08616      -947.80716        37.48816                    157918.56016      -712.26816        37.10316
R09                   -349901.07513      3064.19413        20.80613
R15                    195041.61015     -1722.33915        31.07615
R19                    -58402.10014      4138.93314        25.01814
R17                    289047.31816     -2566.61416        37.72416
R07                     29647.78614      -305.36414        25.07914
J02                    -21414.18916       192.16416        36.00216                    -39980.45911       146.33111        10.01611
J04                     35940.78013      -312.63413        22.09413                     54997.34513      -234.56813        17.69313
J02                      4567.29216      -268.23216        35.85716                     63441.02211      -280.21211         8.85211
C03                      4269.19515       -83.22415        34.34715
C05                      1383.36015      -124.72115        30.18615
C06                    122741.56115     -1079.88715        34.26415
C07                     -3569.64114        32.43214        29.49214
C09                     56647.33815      -505.02115        31.22415
C10                    -13546.46016       119.30716        37.74916
C16                    138556.92415     -1222.71315        34.10715
C22                    169348.56311     -1615.44711         7.00011
C27                     35771.52116      -338.03816        39.84216
C30                   4056305.05616      2477.22416        37.73216
C36                    -30787.60515      2115.30115        33.27015
> 2022 11 18 11 35 04.7049925  0 27                      
G04                    310557.80216     -2704.89216        37.45616                                                                
G07                   -353275.51714      3044.76214        26.60114                                                                
G08                   -167671.84616      1431.59516        38.78016                   -302859.90511      2699.72111         7.00011
G09                    110960.16316      -990.00516        41.16116                    157755.17913      -613.72913        18.33213
G16                    207696.51616     -1799.57116        38.84216                                                                
G18                    238438.61915     -2094.81515        33.00815                                                                
G26                    293753.21313     -2539.96413        21.45213                    450021.62911     -1771.73111         7.08611
G27                    105986.66816      -946.86516        37.73316                    158629.81116      -713.40416        37.58116
R09                   -352966.72913      3068.78213        21.18313
R15                    196767.98115     -1725.42115        33.22115
R19                    -62541.72814      4140.60414        24.97614
R17                    291615.42715     -2569.39815        34.36415
R07                     29955.26613      -309.34913        21.48713
J02                    -21606.78016       192.53916        36.10916                    -40189.37712       204.90612        12.99212
J04                     36253.81714      -313.14814        24.80714                     55230.67014      -233.79114        24.93914
J02                      4836.40616      -267.32716        38.61916                     63740.66113      -195.13213        17.85013
C03                      4343.81215       -83.25915        33.85515
C05                      1505.24415      -124.87115        31.72415
C06                    123825.45215     -1083.99515        31.79915
C07                     -3604.62315        31.60515        31.49815
C09                     57151.59815      -504.76315        33.67815
C10                    -13667.19015       122.37915        32.89415
C16                    139778.17216     -1221.96916        36.47416
C22                    170966.72411     -1619.03311         7.00011
C27                     36113.63416      -338.07016        39.06016
C30                   4053827.32916      2480.45116        39.31716
C36                    -32902.71016      2115.05316        37.64716
> 2022 11 18 11 35 05.7049924  0 27                      
G04                    313259.56116     -2697.59816        37.53816                                                                
G07                   -356322.43115      3043.81515        30.84015                                                                
G08                   -169102.14616      1432.42516        39.14116                   -305617.44911      2722.91011         7.00011
G09                    111948.72716      -989.41816        38.35016                    158419.25912      -613.71012        13.00012
G16                    209496.33216     -1800.67716        38.14716                                                                
G18                    240526.89015     -2097.53015        32.96715                                                                
G26                    296293.17213     -2540.90213        21.87613                    451772.43511     -1892.69111         7.00011
G27                    106933.92516      -947.28016        38.27116                    159341.55115      -709.38015        34.85315
R09                   -356039.05513      3073.01313        20.67613
R15                    198495.88915     -1726.94415        33.89515
R19                    -66683.55914      4144.95114        25.66214
R17                    294186.86215     -2569.53915        35.47515
R07                     30266.22913      -313.54013        22.58213
J02                    -21799.06616       193.67816        36.93416                    -40365.80011       208.50711        10.93111
J04                     36566.49714      -312.88714        25.25914                     55461.64014      -231.41414        25.60714
J02                      5101.45615      -262.04015        34.71415                     64031.00412      -286.95712        12.79912
C03                      4417.94015       -82.99415        34.12815
C05                      1626.36315      -125.07215        30.93315
C06                    124905.50315     -1079.71015        33.95715
C07                     -3635.15715        32.13815        33.29515
C09                     57654.73115      -504.97115        33.07315
C10                    -13790.19915       122.86715        33.91015
C16                    140996.82215     -1218.64015        33.92115
C22                    172592.44411     -1625.51511         7.00011
C27                     36451.76416      -338.26116        38.20116
C30                   4051345.08216      2485.02016        39.57816
C36                    -35018.21215      2114.76615        33.83615
> 2022 11 18 11 35 06.7049921  0 27                      
G04                    315957.29315     -2695.76815        34.75915                                                                
G07                   -359367.18616      3044.56616        36.20416                                                                
G08                   -170535.86516      1434.09816        36.72716                   -308401.52711      2749.39711         7.00011
G09                    112936.72016      -989.40816        35.68216                    159018.85512      -731.71612        13.62012
G16                    211299.62816     -1801.61616        36.93416                                                                
G18                    242620.01516     -2103.31216        36.29216                                                                
G26                    298836.25513     -2552.77513        21.88413                    453590.05011     -1771.38811         7.00011
G27                    107883.59716      -948.00216        38.45716                    160051.00315      -708.55015        34.97315
R09                   -359112.22713      3072.79113        23.32613
R15                    200226.20115     -1729.34415        34.77015
R19                    -70827.53113      4147.19013        21.96613
R17                    296761.64315     -2575.05715        34.33315
R07                     30576.11114      -312.16514        24.83914
J02                    -21992.48616       194.41816        37.05016                    -40575.84411       200.95811         7.00011
J04                     36877.86514      -311.93114        27.73714                     55690.49014      -228.95214        23.69514
J02                      5359.58315      -259.03615        32.19215                     64329.96711      -303.67811         7.74711
C03                      4491.78515       -82.91415        32.52315
C05                      1746.26414      -125.02914        29.27514
C06                    125984.37415     -1074.33315        32.59715
C07                     -3665.52415        33.46415        31.09915
C09                     58157.57515      -504.62915        31.29015
C10                    -13911.32515       122.00115        31.14715
C16                    142210.94415     -1215.20515        34.51815
C22                    174223.05811     -1628.11111         7.00011
C27                     36792.48116      -339.26116        37.57316
C30                   4048856.13316      2487.22916        38.44816
C36                    -37133.77516      2114.96616        36.44116
> 2022 11 18 11 35 07.7049921  0 27                      
G04                    318652.95415     -2702.90115        31.58915                                                                
G07                   -362413.75416      3046.35816        35.93616                                                                
G08                   -171970.59015      1431.25115        34.83115                   -311212.26411      2775.88311         7.00011
G09                    113927.14215      -991.37715        32.47615                    159685.55011      -617.34911         8.69511
G16                    213104.15116     -1802.21416        38.07816                                                                
G18                    244724.89016     -2094.50316        36.78416                                                                
G26                    301381.57513     -2547.21013        20.12113                    455345.73711     -1882.93511         7.00011
G27                    108834.38616      -948.33116        36.64916                    160756.70616      -707.29816        37.02516
R09                   -362187.27313      3073.88213        20.99213
R15                    201957.07415     -1729.55915        35.44815
R19                    -74971.37313      4146.68713        20.35013
R17                    299337.18815     -2573.13615        34.10215
R07                     30885.65014      -310.99614        24.99014
J02                    -22186.51115       194.51515        33.83915                    -40776.79411       201.78111         7.00011
J04                     37187.10915      -310.87615        33.10515                     55919.61414      -228.33714        24.62314
J02                      5617.36515      -270.54015        30.90515                     64592.17511      -299.22811         9.89211
C03                      4565.13915       -82.53915        32.65615
C05                      1865.11614      -125.14014        25.80214
C06                    127058.73015     -1076.38015        32.30115
C07                     -3696.77014        32.97114        28.71114
C09                     58659.84314      -504.94314        27.52914
C10                    -14031.45114       120.92614        28.50314
C16                    143423.46915     -1214.52615        34.83615
C22                    175854.62211     -1631.02911         7.00011
C27                     37134.76416      -340.65416        36.00116
C30                   4046366.36716      2487.14616        38.08216
C36                    -39249.97915      2115.56515        32.31415
> 2022 11 18 11 35 08.7049920  0 27                      
G04                    321348.05115     -2710.09815        30.22515                                                                
G07                   -365460.54115      3047.09415        33.14115                                                                
G08                   -173397.11116      1426.96316        35.87916                   -314049.52211      2802.35011         7.00011
G09                    114918.74215      -994.36415        30.52715                    160291.67411      -731.71611         7.76511
G16                    214905.20815     -1801.27115        35.19515                                                                
G18                    246825.76616     -2093.93216        35.88616                                                                
G26                    303926.31014     -2546.84914        26.13614                    457165.59111     -1775.18011         7.00011
G27                    109784.27216      -949.97616        37.58316                    161459.40315      -705.89215        35.36515
R09                   -365265.53813      3074.63513        20.26013
R15                    203685.37515     -1728.91515        31.97415
R19                    -79114.64913      4146.05113        19.65213
R17                    301907.98815     -2572.13115        35.00315
R07                     31193.47713      -308.27613        22.68713
J02                    -22380.33815       193.86315        34.89615                    -40955.87911       201.78111         7.00011
J04                     37496.65616      -312.96416        38.39716                     56151.60914      -233.54714        27.19714
J02                      5876.17615      -271.98015        35.41215                     64938.96214      -185.37614        27.59814
C03                      4638.34215       -82.78915        30.24415
C05                      1982.92014      -125.07514        25.60914
C06                    128135.75815     -1085.37315        31.72015
C07                     -3728.94814        32.40114        26.96114
C09                     59164.68514      -507.04514        29.23114
C10                    -14150.22814       118.81114        28.31314
C16                    144639.28816     -1218.53716        36.48416
C22                    177481.96311     -1626.26111         7.00011
C27                     37476.52816      -341.87516        39.27516
C30                   4043879.82916      2482.67216        36.75916
C36                    -41366.04015      2116.31115        30.47715
> 2022 11 18 11 35 09.7049920  0 29                      
G04                    324045.34315     -2711.71815        34.18515                                                                
G07                   -368507.82514      3048.52514        29.44614                                                                
G08                   -174821.02116      1421.77616        36.61216                   -316913.31711      2828.83611         7.00011
G09                    115911.96216      -997.63316        36.23616                    160960.13211      -624.05611         8.76011
G16                    216704.40216     -1799.93416        36.00516                                                                
G18                    248916.04016     -2086.30216        36.07316                                                                
G26                    306472.69713     -2542.54213        21.92113                    458916.98211     -1892.69111         7.00011
G27                    110736.08816      -951.97916        37.92016                    162165.08416      -708.71616        36.26516
R09                   -368338.33313      3071.61913        21.72013
R15                    205411.87015     -1727.30315        30.33615
R19                    -83258.70614      4135.53514        24.45714
R17                    304477.17416     -2570.80816        37.16116
R07                     31500.36313      -306.49013        20.68313
J02                    -22572.44615       191.91915        34.25715                    -41166.70311       201.78111        11.14011
J04                     37808.41316      -315.87116        39.71116                     56387.74715      -237.48715        30.14815
J02                      6137.68916      -272.49316        39.03716                     65262.52813      -324.90213        22.05913
C01                       151.16721       -85.85421         7.00021
C03                      4711.27415       -82.88015        31.18715
C05                      2099.70515      -124.97215        30.57315
C06                    129215.07415     -1084.55315        29.63715
C07                     -3759.84014        30.11714        28.12114
C09                     59672.08915      -507.72315        30.34215
C10                    -14269.48714       116.53014        29.33014
C16                    145862.92116     -1223.85216        36.02316
C22                    179102.80812     -1615.75312        12.72912
C27                     37819.34616      -343.43316        38.51616
C30                   4041401.15416      2475.84216        35.89016
C36                    -43480.76915      2115.63015        30.12715
E03                     -1099.96913       270.24413        22.89913                                                                
> 2022 11 18 11 35 10.7049919  0 28                      
G04                    326745.88416     -2713.24216        37.42816                                                                
G07                   -371554.78515      3047.83015        29.75615                                                                
G08                   -176243.16616      1421.14316        37.94416                   -319803.85311      2855.32311        11.17711
G09                    116909.19816      -998.82416        40.29716                    161550.29512      -731.71612        17.31712
G16                    218501.30516     -1799.29916        38.92816                                                                
G18                    251001.08015     -2085.18115        33.85815                                                                
G26                    309020.16013     -2545.97013        20.73213                    460741.17012     -1773.90312        12.52412
G27                    111689.09516      -952.76916        39.45516                    162874.54116      -711.37616        38.07916
R09                   -371410.62714      3073.08114        26.55014
R15                    207136.98514     -1726.39214        27.63314
R19                    -87393.67714      4135.00914        24.88314
R17                    307047.75315     -2570.85215        34.86515
R07                     31808.85213      -309.76813        21.85213
J02                    -22765.13516       192.53516        36.74016                    -41365.84011       201.76211         7.00011
J04                     38125.98715      -317.79515        33.14715                     56625.26815      -238.99215        29.81615
J02                      6410.13716      -274.56816        39.91816                     65573.99212      -332.91512        16.30212
C01                       151.16925       -85.85425        33.27725
C03                      4784.26315       -83.25115        33.58115
C05                      2215.61915      -125.09415        34.18915
C06                    130301.62315     -1088.35515        31.05315
C07                     -3789.70914        29.44314        29.14214
C09                     60181.52015      -508.67215        31.68715
C10                    -14388.18015       115.57915        33.49315
C16                    147087.85015     -1225.82215        35.38815
C22                    180716.93812     -1609.87612        14.43112
C27                     38163.92016      -343.90416        39.13316
C30                   4038927.83816      2474.10216        38.14416
C36                    -45595.86015      2115.18615        32.95815
> 2022 11 18 11 35 11.7049920  0 28                      
G04                    329455.28316     -2711.55816        39.31316                                                                
G07                   -374600.50015      3045.88215        32.85415                                                                
G08                   -177666.85116      1422.91116        39.85416                   -322720.78911      2881.80911         8.89911
G09                    117905.22016      -997.26016        38.39916                    162151.56811      -605.15711        12.26511
G16                    220298.02416     -1801.08916        40.47516                                                                
G18                    253091.77615     -2100.41615        32.56715                                                                
G26                    311566.51813     -2544.31913        19.84413                    462505.67511     -1892.69111         7.47311
G27                    112641.68316      -952.73416        39.04816                    163587.29916      -713.46816        37.88516
R09                   -374482.61414      3074.39814        24.02914
R15                    208862.44114     -1726.08914        27.28814
R19                    -91529.65313      4136.17813        23.15113
R17                    309620.31616     -2575.32216        36.71716
R07                     32119.96113      -310.82413        23.22413
J02                    -22958.50916       193.14816        36.37516                    -41542.86311       201.76211         8.35511
J04                     38441.59315      -317.00915        34.07715                     56862.05215      -238.79615        31.40215
J02                      6682.30416      -262.65016        39.14016                     65884.94612      -310.96612        13.06412
C01                       220.48215       -84.96315        34.20015
C03                      4857.14015       -83.42215        33.02515
C05                      2330.91415      -125.37915        34.41015
C06                    131390.10015     -1082.40015        33.45615
C07                     -3820.31215        29.86015        30.68115
C09                     60693.26015      -508.41815        30.84115
C10                    -14507.00115       118.61515        32.78815
C16                    148312.54715     -1226.20915        34.46915
C22                    182326.30112     -1611.99212        13.86912
C27                     38508.52016      -345.07016        40.11116
C30                   4036452.52816      2477.26516        37.81116
C36                    -47710.71715      2115.21615        34.31715
> 2022 11 18 11 35 12.7049919  0 28                      
G04                    332165.30916     -2701.88216        36.29116                                                                
G07                   -377645.91316      3045.31316        38.71916                                                                
G08                   -179091.02516      1425.31916        37.35016                   -325664.35011      2908.27611         7.00011
G09                    118901.90016      -993.18516        36.25916                    162749.41311      -606.68711         7.21411
G16                    222102.04616     -1803.40816        38.60116                                                                
G18                    255189.44515     -2103.29815        34.63815                                                                
G26                    314114.59613     -2546.92813        21.95513                    464337.04811     -1786.00311         7.00011
G27                    113596.28816      -953.75516        39.07116                    164303.01515      -714.28815        34.77215
R09                   -377554.80913      3075.09513        21.81713
R15                    210596.17215     -1732.28415        32.75315
R19                    -95664.67414      4138.35114        23.90314
R17                    312199.78016     -2579.54916        35.80916
R07                     32432.93413      -311.35513        22.11413
J02                    -23150.63516       193.26816        37.97516                    -41757.00911       206.58411         7.00011
J04                     38754.13216      -314.86016        35.50316                     57098.80215      -233.52115        32.86615
J02                      6947.18416      -261.80816        38.03916                     66189.28011      -312.20511         8.01211
C01                       305.36715       -83.88115        33.05415
C03                      4929.76415       -83.52915        31.99515
C05                      2444.91515      -124.67515        32.35315
C06                    132480.77515     -1081.25115        33.90515
C07                     -3850.80415        31.11215        30.17315
C09                     61200.79015      -505.97015        31.14715
C10                    -14623.89615       117.91515        31.77915
C16                    149538.07015     -1221.13315        34.97615
C22                    183931.61112     -1605.06812        13.65112
C27                     38855.66216      -346.44216        39.01116
C30                   4033973.98116      2481.90716        37.64016
C36                    -49825.37116      2114.68716        37.79216
> 2022 11 18 11 35 13.7049920  0 28                      
G04                    334871.41717     -2705.69817        42.81117                                                                
G07                   -380692.30216      3043.31016        36.61516                                                                
G08                   -180515.91216      1425.72916        40.02916                   -328634.43311      2934.76211         7.00011
G09                    119894.69716      -994.19416        37.06616                    163412.71811      -600.40911         7.00011
G16                    223905.41716     -1803.72516        36.52616                                                                
G18                    257295.87915     -2103.92115        30.21315                                                                
G26                    316661.00514     -2546.31614        27.17914                    466104.83311     -1892.69111         7.00011
G27                    114550.77716      -954.67616        41.20316                    165016.74416      -714.11616        38.59216
R09                   -380628.29813      3075.40213        22.14113
R15                    212329.58415     -1733.86215        32.70715
R19                    -99803.91014      4141.05314        26.29014
R17                    314780.56316     -2582.12816        35.54416
R07                     32747.32113      -311.99513        23.02913
J02                    -23343.74416       193.29716        38.19616                    -41965.98611       209.76111         7.00011
J04                     39066.76416      -313.96816        40.48716                     57334.75415      -234.89915        34.01615
J02                      7205.20816      -259.13416        40.16916                     66497.27911      -305.09711        11.32211
C01                       391.07016       -85.46016        37.07616
C03                      5002.10715       -83.63915        35.41515
C05                      2557.55115      -124.77415        31.10515
C06                    133566.39816     -1082.73016        36.74016
C07                     -3880.48715        31.33915        32.34215
C09                     61706.73415      -505.05415        30.75215
C10                    -14741.32515       118.54415        31.28715
C16                    150757.92716     -1219.34816        39.02816
C22                    185531.92312     -1601.09912        14.38212
C27                     39202.61117      -347.23417        42.54817
C30                   4031494.31917      2482.37517        44.53217
C36                    -51939.53116      2114.42816        38.28916
> 2022 11 18 11 35 14.7049919  0 28                      
G04                    337579.41616     -2705.56716        35.83116                                                                
G07                   -383738.37417      3044.90117        42.36317                                                                
G08                   -181940.40716      1424.95516        39.26716                   -331631.17411      2961.24811        10.76111
G09                    120891.38815      -996.90515        33.71015                    164012.87311      -626.03211         7.00011
G16                    225707.06616     -1801.42516        41.45916                                                                
G18                    259402.61514     -2095.54714        26.17814                                                                
G26                    319205.55814     -2546.69714        27.06614                    467933.32311     -1787.79411        10.02711
G27                    115505.28217      -954.23817        42.16017                    165729.78516      -713.49916        37.39516
R09                   -383704.98113      3076.56013        21.20113
R15                    214062.75414     -1735.47514        28.64614
R19                   -103948.00614      4145.07214        28.81514
R17                    317360.72116     -2581.00716        37.10316
R07                     33058.46813      -308.31513        21.40313
J02                    -23537.61716       194.21216        40.86016                    -42152.67811       208.24111         7.55711
J04                     39379.97716      -312.89416        40.58916                     57567.63416      -234.90116        36.93516
J02                      7461.39216      -260.07616        39.03716                     66802.48011      -312.20511         7.00011
C01                       475.40616       -85.13316        36.01416
C03                      5073.94615       -83.78815        34.93415
C05                      2669.47814      -124.98814        29.18514
C06                    134648.76415     -1081.38115        34.29415
C07                     -3911.23715        30.57115        34.41915
C09                     62212.73815      -505.42915        34.11515
C10                    -14860.05415       119.58615        32.48615
C16                    151976.28815     -1218.85915        31.56215
C22                    187128.91011     -1594.62111        11.40511
C27                     39548.63517      -346.71717        43.70917
C30                   4029013.85316      2480.58116        41.40116
C36                    -54054.53316      2114.98116        41.22516
> 2022 11 18 11 35 15.7049919  0 28                      
G04                    340287.63817     -2707.20517        41.81517                                                                
G07                   -386780.75916      3046.78716        37.20916                                                                
G08                   -183365.24316      1425.20016        40.86016                   -334670.07911      2987.71611         7.00011
G09                    121889.26216      -999.24916        36.69916                    164722.08311      -742.76411         7.00011
G16                    227507.52216     -1798.71616        38.49716                                                                
G18                    261498.22214     -2094.82614        25.55514                                                                
G26                    321748.87414     -2547.47514        28.18614                    469703.38411     -1892.69111         8.50411
G27                    116458.47216      -951.71316        39.24616                    166439.82016      -710.51416        36.54716
R09                   -386776.57713      3068.70613        20.69013
R15                    215789.82914     -1733.26114        29.08114
R19                   -108094.58514      4146.41414        28.30414
R17                    319937.16515     -2574.33415        35.17515
R07                     33366.17913      -308.48013        23.23413
J02                    -23733.80226       196.18526        36.56126                    -42376.89911       146.33111         9.33311
J04                     39691.02916      -310.58416        37.26216                     57798.46616      -232.94816        36.91116
J02                      7724.28716      -264.19116        38.33716                     67083.64511      -308.77511         7.00011
C01  37455225.78726       558.94026       -83.53426        36.03626
C03                      5128.76116       -78.08816        39.98116
C05                      2756.90415      -125.01215        34.35315
C06                    135726.83415     -1082.87215        34.95615
C07                     -3943.78115        28.76915        31.62115
C09                     62711.68415      -502.80815        34.07915
C10                    -14980.53515       120.75215        32.56915
C16                    153196.74716     -1217.63816        36.15316
C22                    188717.40712     -1594.44112        13.03912
C27                     39893.50416      -342.03816        39.89916
C30                   4026533.20117      2482.47017        41.89617
C36                    -56171.78016      2115.62916        36.07016
> 2022 11 18 11 35 16.7049919  0 28                      
G04                    342992.82926     -2705.19126        41.19426                                                                
G07                   -389830.82315      3050.16115        33.07115                                                                
G08                   -184792.02727      1426.78427        41.53627                   -337773.82111      3053.93111         7.00011
G09                    122884.88116      -992.07316        39.46616                    165469.33115      -745.07715        33.01515
G16                    229305.69316     -1796.73216        37.44916                                                                
G18                    263592.30514     -2090.96714        24.29414                                                                
G26                    324296.81414     -2543.36014        25.42414                    471600.64011     -1788.93711        11.08211
G27                    117409.70316      -951.10216        38.04616                    167149.44816      -706.67516        35.67916
R09                   -389843.83613      3074.88613        22.11913
R15                    217520.85514     -1725.95014        25.15414
R19                   -112241.18725      4146.60325        29.56825
R17                    322504.19416     -2571.68916        35.72416
R07                     33674.27513      -308.53513        21.33913
J02                    -23932.28026       198.47826        38.74226                    -42595.83811       215.10011         9.03211
J04                     40000.91126      -309.88126        38.57126                     58029.53915      -231.14415        35.36015
J02                      7985.53225      -261.24425        35.09425                     67395.97411      -314.98711         7.00011
C01  37455240.77626       640.23326       -81.29426        36.81926
C03                      5190.84226       -62.08126        36.73226
C05  40333603.32716      2839.19316      -120.84716        36.74716
C06                    136806.60526     -1079.77126        37.04926
C07                     -3978.71125        34.93025        33.42225
C09                     63213.56026      -501.87626        35.87926
C10                    -15103.25915       121.37615        35.12315
C16                    154414.25526     -1217.50726        38.46426
C22                    190309.60112     -1598.89512        15.61712
C27                     40236.16726      -342.66226        40.11126
C30                   4024050.81627      2482.38627        43.35027
C36                    -58285.04615      2118.87615        32.49815
> 2022 11 18 11 35 17.7049919  0 28                      
G04                    345699.58727     -2706.75827        43.23027                                                                
G07                   -392880.00515      3048.91715        29.68215                                                                
G08                   -186217.38116      1423.23416        39.53616                   -340944.33511      3120.12811         7.00011
G09                    123882.18316     -1000.22916        41.00316                    166214.28826      -744.95826        37.25326
G16                    231104.23526     -1798.54226        38.60126                                                                
G18                    265677.23413     -2089.23513        23.29813                                                                
G26                    326840.96114     -2540.26914        24.15514                    473502.05011     -1781.86811        12.32511
G27                    118362.09527      -952.39227        42.06227                    167860.70625      -711.25825        35.17125
R09                   -392921.61313      3082.30613        22.19313
R15                    219250.50914     -1726.55314        27.75614
R19                   -116386.89925      4145.71125        32.76325
R17                    325080.87726     -2576.68326        36.86626
R07                     33987.65413      -312.60313        19.81913
J02                    -24130.27626       197.99726        38.95826                    -42763.39811       146.32911         8.67411
J04                     40310.80126      -309.89026        37.15726                     58261.12016      -232.90416        35.51416
J02                      8249.45615      -262.79515        33.45015                     67708.90811      -312.20511         7.00011
C01  37455255.46626       721.28426       -81.05126        37.74626
C03  37475664.13826      5265.68626       -74.84426        36.66226
C05  40333626.41125      2917.45525       -78.26125        34.54125
C06                    137887.35215     -1079.18115        34.54315
C07                     -4013.26615        33.36215        33.52215
C09                     63716.41626      -502.85626        38.23026
C10                    -15224.97626       121.71726        36.17926
C16                    155632.53116     -1219.48816        36.43416
C22                    191910.72412     -1603.02712        13.27112
C27                     40579.68216      -346.08416        40.36916
C30                   4021569.09027      2481.72527        44.08627
C36                    -60400.97715      2120.23415        30.29315
> 2022 11 18 11 35 18.7053743  0 28                      
G04  22535532.77527    348409.22627     -2709.63927        41.99727                                                                
G07  23352449.83514   -395925.56514      3048.41214        26.16414                                                                
G08  20534287.40926   -187640.44926      1423.06826        41.45226                   -344181.63911      3186.32511         7.00011
G09  22584133.33026    124882.90326     -1000.71926        37.24326  22584140.22526    166961.44226      -747.15426        36.02426
G16  21311699.91726    232904.05226     -1799.81726        38.88926                                                                
G18  24637673.29413    267772.87113     -2094.48813        23.00913                                                                
G26  23041746.43113    329387.47713     -2541.45413        21.18713                    475359.33612     -1884.14312        16.91912
G27  19980785.69027    119315.97527      -953.87927        42.24627  19980788.38815    168573.53515      -713.41015        34.44615
R09                   -396004.41713      3078.98313        22.63713
R15                    220983.76214     -1734.66514        26.06314
R19                   -120530.32525      4143.42625        33.54425
R17                    327659.53516     -2579.76816        38.46016
R07                     34304.89513      -318.82313        21.90513
J02  39102090.38616    -24327.10916       196.21616        38.79216                    -42905.48015       148.76615        33.74215
J04  37601839.28816     40622.35616      -312.14716        37.16316                     58493.82316      -232.69416        37.71216
J02  37608370.86726      8512.48926      -263.03326        35.60126                     68014.44111      -311.13811         7.00011
C01  37569911.69126       803.59226       -82.30726        38.81026
C03  37590320.66326      5345.73426       -80.04726        37.81226
C05  40448291.03115      2994.01115      -122.77515        32.87415
C06  36330840.38315    138970.21515     -1087.19015        33.95415
C07  36385205.04715     -4044.89315        31.33515        33.80715
C09  36326081.77726     64221.45926      -505.04426        37.07526
C10  37388910.79615    -15344.34215       116.61415        32.82615
C16  36607258.92216    156852.92616     -1221.81916        38.12616
C22                    193520.80912     -1610.53512        12.98512
C27  21980699.07917     40925.04617      -345.90817        41.64317
C30                   4019089.69527      2479.39527        44.63927
C36  23676561.75715    -62515.96615      2114.63515        30.36215
> 2022 11 18 11 35 19.7053743  0 38                      
G04  22536049.91727    351121.09927     -2711.87327        42.10427                                                                
G07  23351870.03714   -398975.33014      3041.59914        25.72914                                                                
G08  20534020.59327   -189060.62627      1420.17627        43.61627                   -345325.99514      3252.54014        27.09414
G09  22584327.89515    125885.75215     -1001.53515        34.62115  22584329.69415    167710.27515      -748.56015        33.07715
G16  21312044.97826    234705.84326     -1801.79126        37.61626                                                                
G18  24638068.12013    269872.92013     -2099.97913        22.00313                                                                
G21  23796840.29016     -9887.30216      3548.91616        39.24216                                                                
G26  23042230.59613    331931.99313     -2548.26513        22.42013                    477244.33512     -1907.03912        14.31912
G27  19980967.66427    120272.88427      -956.90927        43.41427  19980972.46115    169287.55015      -712.62915        32.75315
G31                      7010.31613     -3508.28913        17.66713                                                                
R06                        41.90421     -2990.72921         7.00021
R09                   -399072.28013      3068.46613        20.89713
R15                    222724.57413     -1737.03313        23.28013
R19                   -124671.31415      4139.95015        31.93215
R17                    330240.34726     -2580.81326        38.03226
R07                     34623.30413      -319.19513        22.32913
J02  39102054.41126    -24521.99726       194.88826        38.50226  39102059.20815    -43050.99015       144.74415        34.87815
J04  37601897.44816     40936.07416      -314.07016        36.17416                     58729.42116      -234.93716        35.86716
J02  37608419.43325      8777.73925      -265.24925        34.70725                     68202.14311      -185.37611         7.00011
C01  37569927.88026       887.96026       -84.36926        39.05726
C03  37590335.95226      5427.82226       -82.08826        39.61626
C04                       162.14024       -70.24424        28.01124
C05  40448314.41515      3071.67515      -128.54215        30.66215
C06  36331046.94015    140054.91315     -1088.86715        32.86115
C07  36385194.55425     -4075.15325        30.26025        33.84025
C09  36326180.70826     64728.58926      -507.13026        36.08126
C10  37388890.41015    -15462.37015       118.91115        30.31115
C16  36607493.06026    158075.54126     -1222.61526        39.74826
C19                        74.17821     -2530.72921         7.00021
C22                    195128.27411     -1615.50611        10.14911
C27  21980768.93027     41272.99627      -347.95027        43.55727
C28                      4558.58224     -2803.90024        24.57624
C30                   4016612.66827      2477.02727        42.80027
C36  23676142.04815    -64628.21415      2109.60415        31.08915
C37                      5910.86326     -2442.92526        37.63526
E03                      -550.73224       189.26824        27.23024                                                                
E05                        12.31226     -2110.24226        35.53226                                                                
E10                       -19.88925      2477.07125        32.97125                                                                
